id_airport;name;latitude;longitude;continent;iso_country;city
12243;Aleknagik / New Airport;59.2826004;-158.6179962;NA;US;Aleknagik
3;Honiara International Airport;-9.428;160.054993;OC;SB;Honiara
4;Munda Airport;-8.32797;157.263;OC;SB;Munda
8;Nauru International Airport;-0.547458;166.919006;OC;NR;Yaren District
314558;Alxa Left Banner Bayanhot Airport;38.74831;105.58858;AS;CN;Bayanhot
53;Buka Airport;-5.422319889;154.6730042;OC;PG;Buka Island
54;Chimbu Airport;-6.024290085;144.970993;OC;PG;Kundiawa
55;Daru Airport;-9.086759567;143.2079926;OC;PG;Daru
56;Goroka Airport;-6.081689835;145.3919983;OC;PG;Goronka
57;Gurney Airport;-10.3114996;150.3339996;OC;PG;Gurney
58;Girua Airport;-8.80453968;148.3090057;OC;PG;Popondetta
59;Hoskins Airport;-5.463846;150.407327;OC;PG;Kimbe
60;Kerema Airport;-7.963610172;145.7709961;OC;PG;Kerema
61;Kavieng Airport;-2.579400063;150.8079987;OC;PG;Kavieng
62;Madang Airport;-5.207079887;145.7890015;OC;PG;Madang
63;Mount Hagen Kagamuga Airport;-5.828212;144.299412;OC;PG;Mount Hagen
64;Mendi Airport;-6.14774;143.656998;OC;PG;Mendi
65;Momote Airport;-2.06189;147.423996;OC;PG;Manus Island
66;Nadzab Airport;-6.569803;146.725977;OC;PG;Lae
67;Port Moresby Jacksons International Airport;-9.443380356;147.2200012;OC;PG;Port Moresby
68;Tokua Airport;-4.34046;152.380005;OC;PG;Kokopo
69;Vanimo Airport;-2.6926;141.3028;OC;PG;Vanimo
70;Wapenamanda Airport;-5.635293;143.892231;OC;PG;Wapenamanda
71;Wewak International Airport;-3.583830118;143.6690063;OC;PG;Wewak
27301;Benguera Island Airport;-21.85330009;35.43830109;AF;MZ;Benguera Island
31697;Aasiaat Airport;68.721802;-52.784698;NA;GL;Aasiaat
113;Narsarsuaq Airport;61.1605;-45.425999;NA;GL;Narsarsuaq
114;Nuuk Airport;64.193022;-51.676512;NA;GL;Nuuk
31786;Kulusuk Airport;65.573601;-37.1236;NA;GL;Kulusuk
115;Kangerlussuaq Airport;67.010446;-50.715294;NA;GL;Kangerlussuaq
31700;Sisimiut Airport;66.951302;-53.729301;NA;GL;Sisimiut
116;Thule Air Base;76.53119659;-68.70320129;NA;GL;Thule
117;Akureyri Airport;65.66000366;-18.0727005;EU;IS;Akureyri
119;Egilsstaðir Airport;65.28330231;-14.40139961;EU;IS;Egilsstaðir
120;Hornafjörður Airport;64.295601;-15.2272;EU;IS;Höfn
121;Húsavík Airport;65.952301;-17.426001;EU;IS;Húsavík
122;Ísafjörður Airport;66.05809784;-23.13529968;EU;IS;Ísafjörður
123;Keflavik International Airport;63.985001;-22.6056;EU;IS;Reykjavík
125;Reykjavik Airport;64.12999725;-21.94059944;EU;IS;Reykjavik
4614;Priština Adem Jashari International Airport;42.5728;21.035801;EU;XK;Prishtina
333222;Glauber de Andrade Rocha Airport;-14.907885;-40.914804;SA;BR;Vitória da Conquista
42216;Big Creek Airport;16.519369;-88.407913;NA;BZ;Big Creek
30861;Caye Caulker Airport;17.735015;-88.032862;NA;BZ;Caye Caulker
30867;Caye Chapel Airport;17.683792;-88.044985;NA;BZ;Caye Chapel
42209;Corozal Municipal Airport;18.38220024;-88.41190338;NA;BZ;Corozal
42207;Dangriga Airport;16.98251;-88.230988;NA;BZ;Dangriga
42217;Placencia Airport;16.53695679;-88.36151123;NA;BZ;Placencia
35305;Punta Gorda Airport;16.10239983;-88.8082962;NA;BZ;Punta Gorda
42210;Sartaneja Airport;18.35610008;-88.13079834;NA;BZ;Sartaneja
32370;John Greif II Airport;17.9139;-87.9711;NA;BZ;San Pedro
42215;Sir Barry Bowen Municipal Airport;17.517239;-88.195775;NA;BZ;Belize City
320060;Bamfield Airstrip;48.8206;-125.1193;NA;CA;Bamfield
624;Anahim Lake Airport;52.451501;-125.303776;NA;CA;Anahim Lake
657;Cache Creek-Ashcroft Regional Airport;50.775258;-121.321314;NA;CA;Cache Creek
664;Bella Bella (Campbell Island) Airport;52.185001;-128.156994;NA;CA;Bella Bella
44100;Zhangjiakou Ningyuan Airport;40.738602;114.93;AS;CN;Zhangjiakou
44103;Baoshan Yunrui Airport;25.053301;99.168297;AS;CN;Baoshan (Longyang)
44116;Lincang Boshang Airport;23.7381;100.025002;AS;CN;Lincang
44122;Xigaze Peace Airport / Shigatse Air Base;29.3519;89.311401;AS;CN;Xigazê (Samzhubzê)
44126;Panzhihua Bao'anying Airport;26.54;101.79852;AS;CN;Panzhihua (Renhe)
44139;Foshan Shadi Airport;23.0833;113.07;AS;CN;Foshan (Nanhai)
323907;Xinyang Minggang Airport;32.540819;114.079141;AS;CN;Xinyang
44146;Huizhou Pingtan Airport;23.049999;114.599998;AS;CN;Huizhou (Pingtan)
44157;Shaoguan Danxia Airport;24.9786;113.420998;AS;CN;Shaoguan
44159;Jinggangshan Airport;26.856899;114.737;AS;CN;Ji'an
44160;Baise Youjiang Airport;23.7206;106.959999;AS;CN;Baise (Tianyang)
44167;Lianyungang Huaguoshan International Airport;34.41406;119.17899;AS;CN;Lianyungang
44191;Altay Xuedu Airport;47.749886;88.085808;AS;CN;Altay
44208;Tianshui Maijishan Airport;34.559399;105.860001;AS;CN;Tianshui (Maiji)
44267;Dandong Langtou Airport;40.0247;124.286003;AS;CN;Zhenxing, Dandong
354995;Zhanjiang Wuchuan Airport;21.481667;110.590278;AS;CN;Zhanjiang
32048;Nantong Xingdong International Airport;32.070801;120.975998;AS;CN;Nantong
44646;Lefkoniko Airport / Geçitkale Air Base;35.235947;33.724358;AS;CY;Geçitkale
1652;Cat Lake Airport;51.72719955;-91.82440186;NA;CA;Cat Lake
1654;Fort Frances Municipal Airport;48.655749;-93.44349;NA;CA;Fort Frances
1656;Alert Bay Airport;50.582199;-126.916;NA;CA;Alert Bay
1657;Sault Ste Marie Airport;46.485001;-84.509399;NA;CA;Sault Ste Marie
1658;Kasabonika Airport;53.52470016;-88.64279938;NA;CA;Kasabonika
1659;Kangirsuk Airport;60.02719879;-69.99919891;NA;CA;Kangirsuk
1660;Attawapiskat Airport;52.92750168;-82.43190002;NA;CA;Attawapiskat
1664;Lac Du Bonnet Airport;50.294399;-96.010002;NA;CA;Lac Du Bonnet
1665;St. Anthony Airport;51.391909;-56.08321;NA;CA;St. Anthony
1666;Tofino / Long Beach Airport;49.079833;-125.775583;NA;CA;Tofino
1668;Kugaaruk Airport;68.534401;-89.808098;NA;CA;Kugaaruk
1669;Baie-Comeau Airport;49.1325;-68.204399;NA;CA;Baie-Comeau
1670;Bella Coola Airport;52.387501;-126.596001;NA;CA;Bella Coola
1671;Uranium City Airport;59.56140137;-108.4810028;NA;CA;Uranium City
1672;Bonnyville Airport;54.304199;-110.744003;NA;CA;Bonnyville
1673;CFB Bagotville;48.33060074;-70.99639893;NA;CA;Bagotville
1674;Baker Lake Airport;64.29889679;-96.07779694;NA;CA;Baker Lake
1675;Campbell River Airport;49.950802;-125.271004;NA;CA;Campbell River
1677;Tadoule Lake Airport;58.7061;-98.512199;NA;CA;Tadoule Lake
1678;Brandon Municipal Airport;49.91;-99.951897;NA;CA;Brandon
1679;Brochet Airport;57.8894;-101.679001;NA;CA;Brochet
1681;Berens River Airport;52.358898;-97.018303;NA;CA;Berens River
1683;Lourdes-de-Blanc-Sablon Airport;51.4436;-57.185299;NA;CA;Blanc-Sablon
1684;Cartwright Airport;53.682501;-57.042303;NA;CA;Cartwright
1685;Cambridge Bay Airport;69.10810089;-105.1380005;NA;CA;Cambridge Bay
1687;Nanaimo Airport;49.05497;-123.869863;NA;CA;Nanaimo
1689;Castlegar/West Kootenay Regional Airport;49.29639816;-117.6320038;NA;CA;Castlegar
1690;Miramichi Airport;47.007801;-65.449203;NA;CA;Miramichi
1691;Charlo Airport;47.990799;-66.330299;NA;CA;Charlo
1693;Kugluktuk Airport;67.816704;-115.143997;NA;CA;Kugluktuk
1697;Chesterfield Inlet Airport;63.34690094;-90.73110199;NA;CA;Chesterfield Inlet
1701;Clyde River Airport;70.48609924;-68.51670074;NA;CA;Clyde River
1703;Dawson City Airport;64.04309845;-139.128006;NA;CA;Dawson City
1706;Deer Lake Airport;49.21080017;-57.39139938;NA;CA;Deer Lake
1710;Dauphin Barker Airport;51.10079956;-100.052002;NA;CA;Dauphin
1712;Nain Airport;56.550778;-61.682224;NA;CA;Nain
1713;Dawson Creek Airport;55.74229813;-120.1829987;NA;CA;Dawson Creek
1717;Edmonton International Airport;53.30970001;-113.5800018;NA;CA;Edmonton
1718;Arviat Airport;61.09420013;-94.07080078;NA;CA;Arviat
1722;Fort Severn Airport;56.01890182;-87.67610168;NA;CA;Fort Severn
1726;Inuvik Mike Zubko Airport;68.30419922;-133.4830017;NA;CA;Inuvik
1728;Fort Albany Airport;52.20140076;-81.69689941;NA;CA;Fort Albany
1729;Iqaluit Airport;63.756402;-68.555801;NA;CA;Iqaluit
1730;Fredericton Airport;45.8689003;-66.53720093;NA;CA;Fredericton
1733;Fort Hope Airport;51.56190109;-87.90779877;NA;CA;Fort Hope
1734;Mont-Tremblant International Airport;46.409401;-74.779999;NA;CA;La Macaza
1735;Flin Flon Airport;54.67810059;-101.6819992;NA;CA;Flin Flon
1737;Fort Simpson Airport;61.7602005;-121.2369995;NA;CA;Fort Simpson
1738;Makkovik Airport;55.077335;-59.187942;NA;CA;Makkovik
1739;Texada Gillies Bay Airport;49.69419861;-124.5179977;NA;CA;Texada
1742;Fort Good Hope Airport;66.24079895;-128.651001;NA;CA;Fort Good Hope
1743;Kingston Norman Rogers Airport;44.22529984;-76.59690094;NA;CA;Kingston
1744;La Grande Rivière Airport;53.62530136;-77.70420074;NA;CA;La Grande Rivière
1746;Gods Lake Narrows Airport;54.55889893;-94.49140167;NA;CA;Gods Lake Narrows
1747;Gaspé (Michel-Pouliot) Airport;48.77529907;-64.47859955;NA;CA;Gaspé
1749;Îles-de-la-Madeleine Airport;47.425242;-61.778612;NA;CA;Les Îles-de-la-Madeleine
1750;Igloolik Airport;69.36470032;-81.81610107;NA;CA;Igloolik
1752;Kuujjuarapik Airport;55.2818985;-77.76529694;NA;CA;Kuujjuarapik
1753;Gillam Airport;56.35749817;-94.71060181;NA;CA;Gillam
1754;Grise Fiord Airport;76.42610168;-82.90920258;NA;CA;Grise Fiord
1755;Quaqtaq Airport;61.04639816;-69.61779785;NA;CA;Quaqtaq
1757;Dryden Regional Airport;49.831699;-92.744202;NA;CA;Dryden
1760;Nemiscau Airport;51.69110107;-76.13559723;NA;CA;Nemiscau
1761;Ulukhaktok Holman Airport;70.76280212;-117.8059998;NA;CA;Ulukhaktok
1762;Gjoa Haven Airport;68.63559723;-95.84970093;NA;CA;Gjoa Haven
1763;John C. Munro Hamilton International Airport;43.17359924;-79.93499756;NA;CA;Hamilton
1765;Hopedale Airport;55.448757;-60.228124;NA;CA;Hopedale
1766;Chevery Airport;50.46889877;-59.63669968;NA;CA;Chevery
1768;Montréal / Saint-Hubert Airport;45.51750183;-73.41690063;NA;CA;Montréal
1769;Hay River / Merlyn Carter Airport;60.83969879;-115.7829971;NA;CA;Hay River
1770;Halifax / Stanfield International Airport;44.88079834;-63.50859833;NA;CA;Halifax
1774;Ivujivik Airport;62.41730118;-77.9253006;NA;CA;Ivujivik
1775;Pond Inlet Airport;72.6832962;-77.96669769;NA;CA;Pond Inlet
1776;Island Lake Airport;53.85720062;-94.6536026;NA;CA;Island Lake
1783;Stephenville Airport;48.5442009;-58.54999924;NA;CA;Stephenville
1784;Kamloops Airport;50.70220184;-120.4440002;NA;CA;Kamloops
1786;Aklavik/Freddie Carmichael Airport;68.223297;-135.00599;NA;CA;Aklavik
1787;Waterloo Airport;43.46080017;-80.37860107;NA;CA;Kitchener
1788;Kangiqsujuaq (Wakeham Bay) Airport;61.58860016;-71.92939758;NA;CA;Kangiqsujuaq
1790;Schefferville Airport;54.80530167;-66.80529785;NA;CA;Schefferville
1791;Akulivik Airport;60.8185997;-78.14859772;NA;CA;Akulivik
1792;Waskaganish Airport;51.47330093;-78.75830078;NA;CA;Waskaganish
1796;Aupaluk Airport;59.29669952;-69.59970093;NA;CA;Aupaluk
1798;Kimmirut Airport;62.848253;-69.877853;NA;CA;Kimmirut
1800;Lansdowne House Airport;52.1955986;-87.93419647;NA;CA;Lansdowne House
1802;Lutselk'e Airport;62.418303;-110.681998;NA;CA;Lutselk'e
1803;Lloydminster Airport;53.30920029;-110.072998;NA;CA;Lloydminster
1807;Kangiqsualujjuaq (Georges River) Airport;58.711399;-65.992798;NA;CA;Kangiqsualujjuaq
1808;Kelowna International Airport;49.9561;-119.377998;NA;CA;Kelowna
1812;Mary's Harbour Airport;52.302837;-55.847626;NA;CA;Mary's Harbour
1815;Fort McMurray Airport;56.65330124;-111.2220001;NA;CA;Fort McMurray
1816;Moosonee Airport;51.29109955;-80.60780334;NA;CA;Moosonee
1817;Chapais Airport;49.77190018;-74.52809906;NA;CA;Chibougamau
1818;Umiujaq Airport;56.53609848;-76.51830292;NA;CA;Umiujaq
1822;Natashquan Airport;50.18999863;-61.78919983;NA;CA;Natashquan
1823;Wemindji Airport;53.01060104;-78.83110046;NA;CA;Wemindji
1824;Ottawa / Gatineau Airport;45.521702;-75.563599;NA;CA;Gatineau
1825;Norway House Airport;53.95830154;-97.84420013;NA;CA;Norway House
1828;Points North Landing Airport;58.27669907;-104.0820007;NA;CA;Points North Landing
1833;Old Crow Airport;67.57060242;-139.8390045;NA;CA;Old Crow
1835;Oxford House Airport;54.93330002;-95.27890015;NA;CA;Oxford House
1836;High Level Airport;58.62139893;-117.1650009;NA;CA;High Level
1838;Rainbow Lake Airport;58.49140167;-119.4079971;NA;CA;Rainbow Lake
1840;Ottawa Macdonald-Cartier International Airport;45.32249832;-75.66919708;NA;CA;Ottawa
1842;Prince Albert Glass Field;53.21419907;-105.6729965;NA;CA;Prince Albert
1843;Paulatuk (Nora Aliqatchialuk Ruben) Airport;69.36083812;-124.07547;NA;CA;Paulatuk
1845;Peace River Airport;56.226898;-117.446999;NA;CA;Peace River
1847;Inukjuak Airport;58.47190094;-78.07689667;NA;CA;Inukjuak
1849;Pickle Lake Airport;51.44639969;-90.21420288;NA;CA;Pickle Lake
1850;Pikangikum Airport;51.81969833;-93.97329712;NA;CA;Pikangikum
1852;Peawanuck Airport;54.98809814;-85.44329834;NA;CA;Peawanuck
1855;Prince Rupert Airport;54.28609848;-130.4450073;NA;CA;Prince Rupert
1859;Powell River Airport;49.83420181;-124.5;NA;CA;Powell River
1861;Fort Chipewyan Airport;58.76720047;-111.1169968;NA;CA;Fort Chipewyan
1862;Burns Lake Airport;54.3764;-125.950996;NA;CA;Burns Lake
1864;Quebec Jean Lesage International Airport;46.7911;-71.393303;NA;CA;Quebec
1865;The Pas Airport;53.97140121;-101.0910034;NA;CA;The Pas
1867;Windsor Airport;42.27560043;-82.95559692;NA;CA;Windsor
1870;Kenora Airport;49.78829956;-94.36309814;NA;CA;Kenora
1871;Lethbridge County Airport;49.63029861;-112.8000031;NA;CA;Lethbridge
1872;Greater Moncton Roméo LeBlanc International Airport;46.112202;-64.678596;NA;CA;Moncton
1873;Nakina Airport;50.18280029;-86.6964035;NA;CA;Nakina
1874;Comox Valley Airport / CFB Comox;49.7108;-124.887001;NA;CA;Comox
1875;Regina International Airport;50.43190002;-104.6660004;NA;CA;Regina
1877;Thunder Bay Airport;48.37189865;-89.32389832;NA;CA;Thunder Bay
1878;Grande Prairie Airport;55.17969894;-118.8850021;NA;CA;Grande Prairie
1881;Gander International Airport / CFB Gander;48.936258;-54.567719;NA;CA;Gander
1882;Sydney / J.A. Douglas McCurdy Airport;46.1614;-60.047798;NA;CA;Sydney
1883;Quesnel Airport;53.02610016;-122.5100021;NA;CA;Quesnel
1884;Rae Lakes Airport;64.1160965;-117.3099976;NA;CA;Gamètì
1885;Resolute Bay Airport;74.71690369;-94.9693985;NA;CA;Resolute Bay
1888;Roberval Airport;48.52000046;-72.26560211;NA;CA;Roberval
1889;Red Lake Airport;51.06689835;-93.79309845;NA;CA;Red Lake
1895;Rankin Inlet Airport;62.81140137;-92.11579895;NA;CA;Rankin Inlet
1897;Sudbury Airport;46.625;-80.79889679;NA;CA;Sudbury
1901;Stony Rapids Airport;59.25030136;-105.8410034;NA;CA;Stony Rapids
1904;Saint John Airport;45.31610107;-65.89029694;NA;CA;Saint John
1905;Sanikiluaq Airport;56.53779984;-79.24669647;NA;CA;Sanikiluaq
1907;Fort Smith Airport;60.020302;-111.961998;NA;CA;Fort Smith
1910;Atlin Airport;59.576698;-133.669006;NA;CA;Atlin
1912;St. Theresa Point Airport;53.84560013;-94.85189819;NA;CA;St. Theresa Point
1915;Sachs Harbour (David Nasogaluak Jr. Saaryuaq) Airport;71.99389648;-125.2429962;NA;CA;Sachs Harbour
1918;Cape Dorset Airport;64.230003;-76.526703;NA;CA;Kinngait
1919;Alma Airport;48.50889969;-71.64189911;NA;CA;Alma
1920;Thompson Airport;55.80110168;-97.86419678;NA;CA;Thompson
1921;Big Trout Lake Airport;53.81779861;-89.89689636;NA;CA;Big Trout Lake
1925;Timmins/Victor M. Power;48.56969833;-81.37670136;NA;CA;Timmins
1926;Billy Bishop Toronto City Centre Airport;43.627499;-79.396202;NA;CA;Toronto
1927;Tuktoyaktuk / James Gruben Airport;69.433296;-133.026001;NA;CA;Tuktoyaktuk
1928;Montreal / Pierre Elliott Trudeau International Airport;45.47060013;-73.74079895;NA;CA;Montréal
1929;Naujaat Airport;66.5214;-86.224701;NA;CA;Repulse Bay
1930;Hall Beach Airport;68.7761;-81.2425;NA;CA;Sanirajak
1931;Rouyn Noranda Airport;48.20610046;-78.83560181;NA;CA;Rouyn-Noranda
1933;La Ronge Airport;55.15140152;-105.262001;NA;CA;La Ronge
1937;Qikiqtarjuaq Airport;67.546232;-64.031754;NA;CA;Qikiqtarjuaq
1938;Val-d'Or Airport;48.05329895;-77.78279877;NA;CA;Val-d'Or
1939;Kuujjuaq Airport;58.09609985;-68.42690277;NA;CA;Kuujjuaq
1940;Norman Wells Airport;65.28160095;-126.7979965;NA;CA;Norman Wells
1941;Vancouver International Airport;49.19390106;-123.1839981;NA;CA;Vancouver
1944;Deer Lake Airport;52.65579987;-94.06140137;NA;CA;Deer Lake
1946;Winnipeg / James Armstrong Richardson International Airport;49.90999985;-97.23989868;NA;CA;Winnipeg
1948;Déline Airport;65.21109772;-123.435997;NA;CA;Déline
1949;Wabush Airport;52.9219017;-66.86440277;NA;CA;Wabush
1950;Williams Lake Airport;52.18310165;-122.0540009;NA;CA;Williams Lake
1952;Webequie Airport;52.9593934;-87.37486839;NA;CA;Webequie
1955;Cranbrook/Canadian Rockies International Airport;49.6108017;-115.7819977;NA;CA;Cranbrook
1957;Saskatoon John G. Diefenbaker International Airport;52.17079926;-106.6999969;NA;CA;Saskatoon
1958;Medicine Hat Regional Airport;50.018902;-110.721001;NA;CA;Medicine Hat
1959;Fort St John Airport;56.238098;-120.739998;NA;CA;Fort St.John
1961;Sioux Lookout Airport;50.11389923;-91.90529633;NA;CA;Sioux Lookout
1962;Whale Cove Airport;62.24000168;-92.59809875;NA;CA;Whale Cove
1963;Pangnirtung Airport;66.14499664;-65.71360016;NA;CA;Pangnirtung
1966;Prince George Airport;53.88940048;-122.6790009;NA;CA;Prince George
1967;Northwest Regional Airport Terrace-Kitimat;54.468498;-128.576009;NA;CA;Terrace
1968;London Airport;43.035599;-81.1539;NA;CA;London
1969;Abbotsford International Airport;49.025299;-122.361;NA;CA;Abbotsford
1970;Whitehorse / Erik Nielsen International Airport;60.709599;-135.067001;NA;CA;Whitehorse
1972;North Bay Jack Garland Airport;46.363602;-79.422798;NA;CA;North Bay
1973;Calgary International Airport;51.11389923;-114.0199966;NA;CA;Calgary
1974;Smithers Airport;54.8246994;-127.1829987;NA;CA;Smithers
1975;Fort Nelson Airport;58.83639908;-122.5970001;NA;CA;Fort Nelson
1976;Penticton Airport;49.46310043;-119.6019974;NA;CA;Penticton
1977;Charlottetown Airport;46.29000092;-63.12110138;NA;CA;Charlottetown
1978;Taloyoak Airport;69.5467;-93.576698;NA;CA;Taloyoak
1979;Victoria International Airport;48.6469;-123.426003;NA;CA;Victoria
1980;Lynn Lake Airport;56.86389923;-101.0759964;NA;CA;Lynn Lake
1984;Churchill Airport;58.73920059;-94.06500244;NA;CA;Churchill
1985;Goose Bay Airport;53.31919861;-60.42580032;NA;CA;Goose Bay
1986;St. John's International Airport;47.61859894;-52.75189972;NA;CA;St. John's
1987;Kapuskasing Airport;49.41389847;-82.46749878;NA;CA;Kapuskasing
1989;Mont Joli Airport;48.60860062;-68.20809937;NA;CA;Mont-Joli
1990;Lester B. Pearson International Airport;43.67720032;-79.63059998;NA;CA;Toronto
1993;Yellowknife International Airport;62.462799;-114.440002;NA;CA;Yellowknife
1994;Salluit Airport;62.1794014;-75.66719818;NA;CA;Salluit
1996;Sandspit Airport;53.25429916;-131.8139954;NA;CA;Sandspit
1997;Chris Hadfield Airport;42.99940109;-82.30889893;NA;CA;Sarnia
1998;Coral Harbour Airport;64.19329834;-83.35939789;NA;CA;Coral Harbour
1999;Port Hardy Airport;50.68059921;-127.3669968;NA;CA;Port Hardy
2001;Sept-Îles Airport;50.22330093;-66.26560211;NA;CA;Sept-Îles
2005;York Landing Airport;56.08940125;-96.08920288;NA;CA;York Landing
2009;Ilford Airport;56.05163;-95.620523;NA;CA;Ilford
2010;Bathurst Airport;47.6297;-65.738899;NA;CA;Bathurst
2013;Eastmain River Airport;52.22639847;-78.52249908;NA;CA;Eastmain River
2015;Fond-Du-Lac Airport;59.33440018;-107.1819992;NA;CA;Fond-Du-Lac
2017;Fort Mcpherson Airport;67.40750122;-134.8609924;NA;CA;Fort Mcpherson
2018;Tulita Airport;64.909697;-125.572998;NA;CA;Tulita
2020;Gods River Airport;54.83969879;-94.07859802;NA;CA;Gods River
2025;Kashechewan Airport;52.28250122;-81.67780304;NA;CA;Kashechewan
2027;Muskrat Dam Airport;53.44139862;-91.76280212;NA;CA;Muskrat Dam
2030;Masset Airport;54.02750015;-132.125;NA;CA;Masset
2033;Sachigo Lake Airport;53.89110184;-92.1964035;NA;CA;Sachigo Lake
2036;Round Lake (Weagamow Lake) Airport;52.9435997;-91.31279755;NA;CA;Round Lake
2037;Sandy Lake Airport;53.06420135;-93.3443985;NA;CA;Sandy Lake
2041;Shamattawa Airport;55.86560059;-92.08139801;NA;CA;Shamattawa
2046;Wollaston Lake Airport;58.10689926;-103.1719971;NA;CA;Wollaston Lake
2049;Soummam–Abane Ramdane Airport;36.711952;5.069804;AF;DZ;Béjaïa
2050;Houari Boumediene Airport;36.693886;3.214531;AF;DZ;Algiers
2051;Djanet Inedbirene Airport;24.292801;9.45244;AF;DZ;Djanet
2054;Illizi Takhamalt Airport;26.7234993;8.622650146;AF;DZ;Illizi
32193;Ain Arnat Airport;36.17810059;5.32449007;AF;DZ;Sétif
2056;Aguenar – Hadj Bey Akhamok Airport;22.81150055;5.451079845;AF;DZ;Tamanrasset
2057;Jijel Ferhat Abbas Airport;36.795101;5.87361;AF;DZ;Tahir
2060;Annaba Rabah Bitat Airport;36.826781;7.81334;AF;DZ;Annaba
2061;Mohamed Boudiaf International Airport;36.27600098;6.620389938;AF;DZ;Constantine
2062;Cheikh Larbi Tébessi Airport;35.43159866;8.12071991;AF;DZ;Tébessi
2063;Batna Mostefa Ben Boulaid Airport;35.752102;6.30859;AF;DZ;Batna
2064;Hassi R'Mel Airport;32.930401;3.31154;AF;DZ;Hassi R'Mel
2067;Tindouf Airport;27.7003994;-8.167099953;AF;DZ;Tindouf
2070;Zenata – Messali El Hadj Airport;35.013426;-1.457191;AF;DZ;Zenata
2071;Oran Es-Sénia (Ahmed Ben Bella) International Airport;35.623901;-0.621183;AF;DZ;Es-Sénia
2072;Béchar Boudghene Ben Ali Lotfi Airport;31.64570045;-2.269860029;AF;DZ;Béchar
2075;Touat Cheikh Sidi Mohamed Belkebir Airport;27.837601;-0.186414;AF;DZ;Adrar
2076;Biskra - Mohamed Khider Airport;34.793301;5.73823;AF;DZ;Biskra
2077;El Golea Airport;30.571301;2.85959;AF;DZ;El Menia
2078;Noumérat - Moufdi Zakaria Airport;32.38410187;3.79411006;AF;DZ;Ghardaïa
2079;Hassi Messaoud-Oued Irara Krim Belkacem Airport;31.673;6.14044;AF;DZ;Hassi Messaoud
2080;In Salah Airport;27.25099945;2.512020111;AF;DZ;In Salah
2081;Touggourt Sidi Madhi Airport;33.06779861;6.088669777;AF;DZ;Touggourt
2083;Guemar Airport;33.51139832;6.776790142;AF;DZ;Guemar
2084;Timimoun Airport;29.2371006;0.276033014;AF;DZ;Timimoun
2085;Ain Beida Airport;31.9172;5.41278;AF;DZ;Ouargla
2086;Zarzaitine - In Aménas Airport;28.0515;9.64291;AF;DZ;In Aménas
2087;Cadjehoun Airport;6.357230186;2.384350061;AF;BJ;Cotonou
316519;Baicheng Chang'an Airport;45.505278;123.019722;AS;CN;Baicheng
2088;Ouagadougou Airport;12.3532;-1.51242;AF;BF;Ouagadougou
2089;Bobo Dioulasso Airport;11.16009998;-4.33096981;AF;BF;Bobo Dioulasso
2090;Kotoka International Airport;5.6051898;-0.166786;AF;GH;Accra
354173;Ho Airport;6.579691;0.532547;AF;GH;Ho
2091;Tamale Airport;9.557189941;-0.863214016;AF;GH;Tamale
2093;Kumasi Airport;6.714560032;-1.590819955;AF;GH;Kumasi
2094;Sunyani Airport;7.36183;-2.32876;AF;GH;Sunyani
2095;Takoradi Airport;4.89605999;-1.774760008;AF;GH;Sekondi-Takoradi
2096;Félix-Houphouët-Boigny International Airport;5.26139;-3.92629;AF;CI;Abidjan
2097;Bouaké Airport;7.7388;-5.07367;AF;CI;Bouaké
2104;Nnamdi Azikiwe International Airport;9.006790161;7.263169765;AF;NG;Abuja
309668;Akwa Ibom International Airport;4.8725;8.093;AF;NG;Uyo
2105;Akure Airport;7.246739864;5.301010132;AF;NG;Akure
323056;Sir Abubakar Tafawa Balewa International Airport;10.482833;9.744;AF;NG;Bauchi
2106;Benin Airport;6.316979885;5.599500179;AF;NG;Benin
2107;Margaret Ekpo International Airport;4.976019859;8.347200394;AF;NG;Calabar
2108;Akanu Ibiam International Airport;6.474269867;7.56196022;AF;NG;Enegu
2110;Ibadan Airport;7.362460136;3.978329897;AF;NG;Ibadan
2111;Ilorin International Airport;8.440210342;4.493919849;AF;NG;Ilorin
2112;Sam Mbakwe International Airport;5.427060127;7.206029892;AF;NG;Owerri
2113;Yakubu Gowon Airport;9.639829636;8.869050026;AF;NG;Jos
2114;Kaduna Airport;10.6960001;7.320109844;AF;NG;Kaduna
2115;Mallam Aminu International Airport;12.0476;8.52462;AF;NG;Kano
2116;Maiduguri International Airport;11.85529995;13.08090019;AF;NG;Maiduguri
2117;Makurdi Airport;7.70388;8.61394;AF;NG;Makurdi
2118;Murtala Muhammed International Airport;6.577370167;3.321160078;AF;NG;Lagos
2120;Port Harcourt International Airport;5.015490055;6.949590206;AF;NG;Port Harcourt
2121;Sadiq Abubakar III International Airport;12.91629982;5.207190037;AF;NG;Sokoto
2122;Yola Airport;9.25755024;12.43039989;AF;NG;Yola
2125;Diori Hamani International Airport;13.4815;2.18361;AF;NE;Niamey
2127;Mano Dayak International Airport;16.9659996;8.000109673;AF;NE;Agadez
2130;Zinder Airport;13.77900028;8.98375988;AF;NE;Zinder
2131;Tabarka-Aïn Draham International Airport;36.98;8.87694;AF;TN;Tabarka
2132;Monastir Habib Bourguiba International Airport;35.7580986;10.75469971;AF;TN;Monastir
44483;Enfidha - Hammamet International Airport;36.075833;10.438611;AF;TN;Enfidha
2133;Tunis Carthage International Airport;36.851002;10.2272;AF;TN;Tunis
2136;Gafsa Ksar International Airport;34.42200089;8.822500229;AF;TN;Gafsa
2137;Gabès Matmata International Airport;33.733691;9.91941;AF;TN;Gabès
2139;Djerba Zarzis International Airport;33.875;10.7755;AF;TN;Mellita
2141;Sfax Thyna International Airport;34.7179985;10.69099998;AF;TN;Sfax
2142;Tozeur Nefta International Airport;33.93970108;8.110560417;AF;TN;Tozeur
2144;Lomé–Tokoin International Airport;6.16561;1.25451;AF;TG;Lomé
2152;Antwerp International Airport (Deurne);51.1894;4.46028;EU;BE;Antwerp
2155;Brussels Airport;50.901402;4.48444;EU;BE;Zaventem
2157;Brussels South Charleroi Airport;50.459202;4.45382;EU;BE;Brussels
2162;Liège Airport;50.637402;5.44322;EU;BE;Liège
2163;Ostend-Bruges International Airport;51.1998;2.874673;EU;BE;Ostend
2187;Heringsdorf Airport;53.87870026;14.15229988;EU;DE;Heringsdorf
301881;Berlin Brandenburg Airport;52.362247;13.500672;EU;DE;Berlin
2210;Dresden Airport;51.134123;13.767831;EU;DE;Dresden
2211;Erfurt Airport;50.97980118;10.95810032;EU;DE;Erfurt
2212;Frankfurt Airport;50.036521;8.561268;EU;DE;Frankfurt am Main
2213;Münster Osnabrück Airport;52.134602;7.68483;EU;DE;Münster
2214;Hamburg Helmut Schmidt Airport;53.630402;9.98823;EU;DE;Hamburg
2216;Cologne Bonn Airport;50.865898;7.14274;EU;DE;Köln (Cologne)
2217;Düsseldorf Airport;51.289501;6.76678;EU;DE;Düsseldorf
2218;Munich Airport;48.353802;11.7861;EU;DE;Munich
2219;Nuremberg Airport;49.498699;11.078056;EU;DE;Nuremberg
2220;Leipzig/Halle Airport;51.423889;12.236389;EU;DE;Leipzig
2221;Saarbrücken Airport;49.21459961;7.109509945;EU;DE;Saarbrücken
2222;Stuttgart Airport;48.68989944;9.221960068;EU;DE;Stuttgart
2224;Hannover Airport;52.46110153;9.685079575;EU;DE;Hannover
2225;Bremen Airport;53.047501;8.78667;EU;DE;Bremen
2227;Frankfurt-Hahn Airport;49.9487;7.26389;EU;DE;Frankfurt am Main
2228;Mannheim-City Airport;49.473057;8.514167;EU;DE;Mannheim
2236;Lübeck Blankensee Airport;53.80540085;10.71920013;EU;DE;Lübeck
2237;Memmingen Allgau Airport;47.98880005;10.23950005;EU;DE;Memmingen
2244;Paderborn Lippstadt Airport;51.61410141;8.616319656;EU;DE;Paderborn
2246;Weeze Airport;51.60240173;6.142169952;EU;DE;Weeze
2247;Dortmund Airport;51.518299;7.61224;EU;DE;Dortmund
2256;Friedrichshafen Airport;47.671299;9.51149;EU;DE;Friedrichshafen
2270;Karlsruhe Baden-Baden Airport;48.7794;8.0805;EU;DE;Baden-Baden
2285;Kassel-Calden Airport;51.417273;9.384967;EU;DE;Kassel
2296;Westerland Sylt Airport;54.91320038;8.340470314;EU;DE;Westerland
2298;Kärdla Airport;58.99079895;22.83069992;EU;EE;Kärdla
2299;Kuressaare Airport;58.22990036;22.5095005;EU;EE;Kuressaare
2300;Pärnu Airport;58.41899872;24.4727993;EU;EE;Pärnu
2301;Lennart Meri Tallinn Airport;59.41329956;24.83279991;EU;EE;Tallinn
2302;Tartu Airport;58.307499;26.690399;EU;EE;Tartu
2303;Enontekio Airport;68.36260223;23.42429924;EU;FI;Enontekio
2307;Helsinki Vantaa Airport;60.3172;24.963301;EU;FI;Helsinki
2314;Ivalo Airport;68.6072998;27.40530014;EU;FI;Ivalo
2315;Joensuu Airport;62.662899;29.6075;EU;FI;Joensuu / Liperi
2316;Jyväskylä Airport;62.399502;25.678301;EU;FI;Jyväskylän Maalaiskunta
2318;Kemi-Tornio Airport;65.77870178;24.58209991;EU;FI;Kemi / Tornio
2319;Kajaani Airport;64.2855;27.6924;EU;FI;Kajaani
2321;Kokkola-Pietarsaari Airport;63.721199;23.143101;EU;FI;Kokkola / Kruunupyy
2324;Kuusamo Airport;65.987602;29.239401;EU;FI;Kuusamo
2325;Kittilä Airport;67.7009964;24.84679985;EU;FI;Kittilä
2326;Kuopio Airport;63.007099;27.7978;EU;FI;Kuopio / Siilinjärvi
2329;Lappeenranta Airport;61.044601;28.144743;EU;FI;Lappeenranta
2330;Mariehamn Airport;60.1222;19.898199;EU;FI;Mariehamn
2334;Oulu Airport;64.930099;25.354601;EU;FI;Oulu / Oulunsalo
2336;Pori Airport;61.4617;21.799999;EU;FI;Pori
2341;Rovaniemi Airport;66.56479645;25.83040047;EU;FI;Rovaniemi
2343;Savonlinna Airport;61.9431;28.945101;EU;FI;Savonlinna
2345;Seinäjoki Airport;62.692101;22.8323;EU;FI;Seinäjoki / Ilmajoki
2347;Tampere-Pirkkala Airport;61.414101;23.604401;EU;FI;Tampere / Pirkkala
2349;Turku Airport;60.514099;22.2628;EU;FI;Turku
2351;Vaasa Airport;63.050701;21.762199;EU;FI;Vaasa
2352;Varkaus Airport;62.171101;27.868601;EU;FI;Varkaus / Joroinen
2385;Belfast International Airport;54.65750122;-6.215829849;EU;GB;Belfast
2387;George Best Belfast City Airport;54.618099;-5.8725;EU;GB;Belfast
2388;City of Derry Airport;55.0428009;-7.161109924;EU;GB;Derry
2389;Birmingham International Airport;52.45389938;-1.748029947;EU;GB;Birmingham
2398;Manchester Airport;53.349375;-2.279521;EU;GB;Manchester
2401;Robin Hood Doncaster Sheffield Airport;53.480538;-1.010656;EU;GB;Doncaster
2411;Campbeltown Airport;55.43719864;-5.686389923;EU;GB;Campbeltown
29126;Eday Airport;59.19060135;-2.772219896;EU;GB;Eday
2415;Cardiff International Airport;51.396702;-3.34333;EU;GB;Cardiff
2417;Bristol Airport;51.382702;-2.71909;EU;GB;Bristol
2418;Liverpool John Lennon Airport;53.333599;-2.84972;EU;GB;Liverpool
2419;London Luton Airport;51.87469864;-0.368333012;EU;GB;London
2421;Bournemouth Airport;50.779999;-1.8425;EU;GB;Bournemouth
2422;Southampton Airport;50.950298;-1.3568;EU;GB;Southampton
2404;Newquay Cornwall Airport;50.44060135;-4.995409966;EU;GB;Newquay
2424;Alderney Airport;49.706104;-2.21472;EU;GG;Saint Anne
2425;Guernsey Airport;49.435001;-2.60197;EU;GG;Saint Peter Port
2426;Jersey Airport;49.207901;-2.195509911;EU;JE;Saint Helier
2429;London Gatwick Airport;51.148102;-0.190278;EU;GB;London
2430;London City Airport;51.505299;0.055278;EU;GB;London
2434;London Heathrow Airport;51.4706;-0.461941;EU;GB;London
2435;Southend Airport;51.5714;0.695556;EU;GB;London
2441;Blackpool International Airport;53.77170181;-3.028609991;EU;GB;Blackpool
2442;Humberside Airport;53.57440186;-0.350832999;EU;GB;Grimsby
2444;Leeds Bradford Airport;53.865898;-1.66057;EU;GB;Leeds
2447;Isle of Man Airport;54.083302;-4.62389;EU;IM;Castletown
2448;Newcastle Airport;55.037498;-1.69167;EU;GB;Newcastle
2449;Teesside International Airport;54.509201;-1.42941;EU;GB;Darlington, Durham
2450;East Midlands Airport;52.8311;-1.32806;EU;GB;Nottingham
2454;Anglesey Airport;53.24810028;-4.535339832;EU;GB;Angelsey
2456;Kirkwall Airport;58.95780182;-2.904999971;EU;GB;Orkney Islands
2457;Sumburgh Airport;59.87889862;-1.295560002;EU;GB;Lerwick
2458;Wick Airport;58.45890045;-3.093060017;EU;GB;Wick
2459;Aberdeen Dyce Airport;57.2019;-2.19778;EU;GB;Aberdeen
2460;Inverness Airport;57.54249954;-4.047500134;EU;GB;Inverness
2461;Glasgow International Airport;55.871899;-4.43306;EU;GB;Paisley, Renfrewshire
2462;Edinburgh Airport;55.950145;-3.372288;EU;GB;Edinburgh
2463;Islay Airport;55.68190002;-6.256669998;EU;GB;Port Ellen
2464;Glasgow Prestwick Airport;55.502003;-4.587019;EU;GB;Prestwick, South Ayrshire
2465;Benbecula Airport;57.48109818;-7.362780094;EU;GB;Balivanich
2467;Dundee Airport;56.45249939;-3.02583003;EU;GB;Dundee
2468;Stornoway Airport;58.215599;-6.33111;EU;GB;Stornoway, Western Isles
29173;Barra Airport;57.0228;-7.44306;EU;GB;Eoligarry
2469;Tiree Airport;56.49919891;-6.869170189;EU;GB;Balemartine
2475;Norwich International Airport;52.6758;1.28278;EU;GB;Norwich
2476;London Stansted Airport;51.88499832;0.234999999;EU;GB;London
2481;Exeter International Airport;50.734402;-3.41389;EU;GB;Exeter
2512;Mount Pleasant Airport;-51.82279968;-58.44720078;SA;FK;Mount Pleasant
2513;Amsterdam Airport Schiphol;52.308601;4.76389;EU;NL;Amsterdam
2515;Maastricht Aachen Airport;50.911701;5.77014;EU;NL;Maastricht
2518;Eindhoven Airport;51.45009995;5.374529839;EU;NL;Eindhoven
2519;Eelde Airport;53.11970139;6.579440117;EU;NL;Groningen
2522;Lelystad Airport;52.4603;5.52722;EU;NL;Lelystad
2524;Rotterdam The Hague Airport;51.956902;4.43722;EU;NL;Rotterdam
2530;Cork Airport;51.841301;-8.49111;EU;IE;Cork
2531;Galway Airport;53.30020142;-8.941590309;EU;IE;Galway
2532;Donegal Airport;55.0442009;-8.340999603;EU;IE;Donegal
2533;Dublin Airport;53.421299;-6.27007;EU;IE;Dublin
2534;Ireland West Knock Airport;53.910301;-8.81849;EU;IE;Charlestown
2535;Kerry Airport;52.180901;-9.52378;EU;IE;Killarney
2537;Shannon Airport;52.702;-8.92482;EU;IE;Shannon
2539;Waterford Airport;52.18719864;-7.086959839;EU;IE;Waterford
2540;Aarhus Airport;56.303331;10.618286;EU;DK;Aarhus
2541;Billund Airport;55.74029922;9.151780128;EU;DK;Billund
2542;Copenhagen Kastrup Airport;55.61790085;12.65600014;EU;DK;Copenhagen
2543;Esbjerg Airport;55.525902;8.5534;EU;DK;Esbjerg
2546;Karup Airport;56.29750061;9.124629974;EU;DK;Karup
2549;Odense Airport;55.47669983;10.33090019;EU;DK;Odense
2552;Bornholm Airport;55.06330109;14.75959969;EU;DK;Rønne
2553;Sønderborg Airport;54.96440125;9.791729927;EU;DK;Sønderborg
2554;Sindal Airport;57.503502;10.2294;EU;DK;Sindal
2559;Vágar Airport;62.063599;-7.27722;EU;FO;Vágar
2562;Aalborg Airport;57.092759;9.849243;EU;DK;Aalborg
2563;Luxembourg-Findel International Airport;49.6233333;6.2044444;EU;LU;Luxembourg
2564;Ålesund Airport, Vigra;62.5625;6.1197;EU;NO;Ålesund
2565;Andøya Airport, Andenes;69.292503;16.144199;EU;NO;Andenes
2566;Alta Airport;69.97609711;23.37170029;EU;NO;Alta
2568;Brønnøysund Airport, Brønnøy;65.461098;12.2175;EU;NO;Brønnøy
2569;Bodø Airport;67.269203;14.3653;EU;NO;Bodø
2570;Bergen Airport, Flesland;60.2934;5.21814;EU;NO;Bergen
2571;Båtsfjord Airport;70.60050201;29.69140053;EU;NO;Båtsfjord
29255;Berlevåg Airport;70.871399;29.034201;EU;NO;Berlevåg
2572;Kristiansand Airport, Kjevik;58.204201;8.08537;EU;NO;Kjevik
2574;Bardufoss Airport;69.05580139;18.54039955;EU;NO;Målselv
2575;Harstad/Narvik Airport, Evenes;68.49130249;16.67810059;EU;NO;Evenes
2577;Florø Airport;61.58359909;5.024720192;EU;NO;Florø
2578;Oslo Airport, Gardermoen;60.193901;11.1004;EU;NO;Oslo
2579;Haugesund Airport, Karmøy;59.345299;5.20836;EU;NO;Karmøy
28115;Hammerfest Airport;70.67970276;23.66860008;EU;NO;Hammerfest
29261;Honningsvåg Airport, Valan;71.009697;25.983601;EU;NO;Honningsvåg
2581;Kristiansund Airport, Kvernberget;63.111801;7.82452;EU;NO;Kvernberget
2583;Kirkenes Airport, Høybuktmoen;69.7258;29.8913;EU;NO;Kirkenes
29264;Leknes Airport;68.15249634;13.6093998;EU;NO;Leknes
29265;Mehamn Airport;71.02970123;27.82670021;EU;NO;Mehamn
2585;Molde Airport, Årø;62.744701;7.2625;EU;NO;Årø
2586;Mosjøen Airport, Kjærstad;65.783997;13.2149;EU;NO;Mosjøen
2587;Lakselv Airport, Banak;70.068802;24.973499;EU;NO;Lakselv
2588;Notodden Airport;59.565701;9.21222;EU;NO;Notodden
2589;Ørland Airport;63.69889832;9.604000092;EU;NO;Ørland
28114;Ørsta-Volda Airport, Hovden;62.18000031;6.074100018;EU;NO;Ørsta
29277;Mo i Rana Airport, Røssvoll;66.36389923;14.30140018;EU;NO;Mo i Rana
29278;Rørvik Airport, Ryum;64.83830261;11.14610004;EU;NO;Rørvik
2591;Røros Airport;62.57839966;11.34230042;EU;NO;Røros
2593;Svalbard Airport, Longyear;78.24610138;15.46560001;EU;NO;Longyearbyen
29281;Svolvær Airport, Helle;68.243301;14.6692;EU;NO;Svolvær
29282;Stokmarknes Airport, Skagen;68.578827;15.033417;EU;NO;Hadsel
2595;Stord Airport, Sørstokken;59.791901;5.34085;EU;NO;Leirvik
2596;Sørkjosen Airport;69.78679657;20.95940018;EU;NO;Sørkjosen
2597;Vardø Airport, Svartnes;70.35540009;31.04490089;EU;NO;Vardø
2598;Sandnessjøen Airport, Stokka;65.956802;12.4689;EU;NO;Alstahaug
2599;Tromsø Airport, Langnes;69.683296;18.9189;EU;NO;Tromsø
2600;Sandefjord Airport, Torp;59.18669891;10.25860024;EU;NO;Torp
2601;Trondheim Airport, Værnes;63.457802;10.924;EU;NO;Trondheim
29284;Vadsø Airport;70.06529999;29.84469986;EU;NO;Vadsø
336112;Yan'an Nanniwan Airport;36.479413;109.464083;AS;CN;Yan'an (Baota)
2602;Stavanger Airport, Sola;58.876701;5.63778;EU;NO;Stavanger
2604;Bydgoszcz Ignacy Jan Paderewski Airport;53.096802;17.977699;EU;PL;Bydgoszcz
2608;Gdańsk Lech Wałęsa Airport;54.37760162;18.46619987;EU;PL;Gdańsk
2609;Kraków John Paul II International Airport;50.077702;19.7848;EU;PL;Kraków
2613;Katowice International Airport;50.4743;19.08;EU;PL;Katowice
309484;Lublin Airport;51.240278;22.713611;EU;PL;Lublin
2616;Łódź Władysław Reymont Airport;51.72190094;19.3980999;EU;PL;Łódź
2622;Modlin Airport;52.451099;20.6518;EU;PL;Warsaw
2625;Poznań-Ławica Airport;52.421001;16.8263;EU;PL;Poznań
2628;Radom Airport;51.389198;21.213301;EU;PL;Radom
2629;Rzeszów-Jasionka Airport;50.110001;22.018999;EU;PL;Rzeszów
2630;"Szczecin-Goleniów ""Solidarność"" Airport";53.584702;14.9022;EU;PL;Goleniow
2635;Olsztyn-Mazury Airport;53.481899;20.9377;EU;PL;Olsztyn
2637;Warsaw Chopin Airport;52.16569901;20.96710014;EU;PL;Warsaw
2638;Copernicus Wrocław Airport;51.102699;16.885799;EU;PL;Wrocław
2639;Zielona Góra-Babimost Airport;52.13850021;15.7986002;EU;PL;Babimost
2646;Ronneby Airport;56.266701;15.265;EU;SE;Ronneby
2648;Gothenburg-Landvetter Airport;57.66279984;12.27980042;EU;SE;Gothenburg
2649;Jönköping Airport;57.75759888;14.06869984;EU;SE;Jönköping
2654;Trollhättan-Vänersborg Airport;58.31809998;12.34500027;EU;SE;Trollhättan
2659;Mora Airport;60.957901;14.5114;EU;SE;Mora
2660;Stockholm Skavsta Airport;58.788601;16.912201;EU;SE;Stockholm
316498;Scandinavian Mountains Airport;61.158393;12.842503;EU;SE;Sälen / Trysil
2664;Kristianstad Airport;55.92169952;14.08549976;EU;SE;Kristianstad
2668;Kalmar Airport;56.685501;16.2876;EU;SE;Kalmar
2669;Malmö Sturup Airport;55.536305;13.376198;EU;SE;Malmö
2670;Halmstad Airport;56.69110107;12.82019997;EU;SE;Halmstad
2672;Växjö Kronoberg Airport;56.92910004;14.72799969;EU;SE;Växjö
2675;Sveg Airport;62.047798;14.4229;EU;SE;Sveg
2676;Gällivare Airport;67.13240051;20.81459999;EU;SE;Gällivare
2679;Kramfors-Sollefteå Höga Kusten Airport;63.048599;17.7689;EU;SE;Nyland
2680;Lycksele Airport;64.548302;18.7162;EU;SE;Lycksele
2682;Sundsvall-Härnösand Airport;62.52809906;17.44389915;EU;SE;Sundsvall/ Härnösand
2683;Örnsköldsvik Airport;63.40829849;18.98999977;EU;SE;Örnsköldsvik
2685;Kiruna Airport;67.8219986;20.33679962;EU;SE;Kiruna
2687;Skellefteå Airport;64.62480164;21.07690048;EU;SE;Skellefteå
2689;Umeå Airport;63.79180145;20.28280067;EU;SE;Umeå
2690;Vilhelmina South Lapland Airport;64.579102;16.833599;EU;SE;Vilhelmina
2691;Arvidsjaur Airport;65.59030151;19.28190041;EU;SE;Arvidsjaur
29358;Åre Östersund Airport;63.19440079;14.50030041;EU;SE;Östersund
2693;Örebro Airport;59.22370148;15.03800011;EU;SE;Örebro
2694;Hagfors Airport;60.0201;13.5789;EU;SE;Råda
2695;Karlstad Airport;59.44469833;13.33740044;EU;SE;Karlstad
2696;Stockholm Västerås Airport;59.58940125;16.63360023;EU;SE;Stockholm / Västerås
2697;Luleå Airport;65.5438;22.122;EU;SE;Luleå
2701;Stockholm-Arlanda Airport;59.65190125;17.91860008;EU;SE;Stockholm
2702;Stockholm-Bromma Airport;59.35440063;17.94169998;EU;SE;Stockholm
2703;Dala Airport;60.422001;15.5152;EU;SE;Borlange
2706;Linköping City Airport;58.40620041;15.68050003;EU;SE;Linköping
2707;Norrköping Airport;58.5862999;16.25060081;EU;SE;Norrköping
2708;Torsby Airport;60.1576;12.9913;EU;SE;Torsby
2710;Visby Airport;57.66279984;18.34620094;EU;SE;Visby
2711;Ängelholm-Helsingborg Airport;56.29610062;12.84710026;EU;SE;Ängelholm
2713;Storuman Airport;64.960899;17.6966;EU;SE;Storuman
2716;Hemavan Airport;65.806099;15.0828;EU;SE;Hemavan
2739;Rostock-Laage Airport;53.91820145;12.27830029;EU;DE;Rostock
2757;Liepāja International Airport;56.51750183;21.09690094;EU;LV;Liepāja
2758;Riga International Airport;56.923599;23.9711;EU;LV;Riga
2759;Ventspils International Airport;57.35779953;21.5442009;EU;LV;Ventspils
2760;Kaunas International Airport;54.96390152;24.08480072;EU;LT;Kaunas
2762;Palanga International Airport;55.97320175;21.09390068;EU;LT;Palanga
2766;Vilnius International Airport;54.634102;25.285801;EU;LT;Vilnius
2772;Bram Fischer International Airport;-29.092699;26.302401;AF;ZA;Bloemfontain
2775;Cape Town International Airport;-33.96480179;18.60169983;AF;ZA;Cape Town
2779;Ben Schoeman Airport;-33.035599;27.825899;AF;ZA;East London
2783;George Airport;-34.0056;22.378902;AF;ZA;George
2794;Kimberley Airport;-28.80279922;24.76519966;AF;ZA;Kimberley
2795;Kruger Mpumalanga International Airport;-25.38319969;31.10560036;AF;ZA;Mpumalanga
2800;Lanseria International Airport;-25.938499;27.9261;AF;ZA;Johannesburg
300795;King Shaka International Airport;-29.61444444;31.11972222;AF;ZA;Durban
2808;Malamala Airport;-24.81809998;31.54459953;AF;ZA;Malamala
2809;Margate Airport;-30.85740089;30.34300041;AF;ZA;Margate
2812;Mmabatho International Airport;-25.79840088;25.54800034;AF;ZA;Mafeking
31055;OR Tambo International Airport;-26.1392;28.246;AF;ZA;Johannesburg
2820;Chief Dawid Stuurman International Airport;-33.984901;25.6173;AF;ZA;Gqeberha (Port Elizabeth)
2821;Plettenberg Bay Airport;-34.08816;23.328723;AF;ZA;Plettenberg Bay
2822;Hendrik Van Eck Airport;-23.93720055;31.15539932;AF;ZA;Phalaborwa
2823;Pietersburg Municipal Airport;-23.92609978;29.4843998;AF;ZA;Polokwane
2825;Pietermaritzburg Airport;-29.64900017;30.39870071;AF;ZA;Pietermaritzburg
2827;Polokwane International Airport;-23.845269;29.458615;AF;ZA;Polokwane
2831;Richards Bay Airport;-28.74099922;32.09209824;AF;ZA;Richards Bay
2847;Pierre Van Ryneveld Airport;-28.39909935;21.2602005;AF;ZA;Upington
2848;K. D. Matanzima Airport;-31.54636318;28.6733551;AF;ZA;Mthatha
2860;P G Matante Intl;-21.15914;27.468545;AF;BW;Francistown
2861;Jwaneng Airport;-24.602301;24.691;AF;BW;Jwaneng
2862;Kasane Airport;-17.832899;25.162399;AF;BW;Kasane
2863;Maun Airport;-19.97260094;23.43110085;AF;BW;Maun
2864;Sir Seretse Khama International Airport;-24.555201;25.9182;AF;BW;Gaborone
2866;Selebi Phikwe Airport;-22.0583;27.8288;AF;BW;Selebi Phikwe
2868;Maya-Maya Airport;-4.251699924;15.25300026;AF;CG;Brazzaville
30920;Ngot Nzoungou Airport;-4.20635;12.6599;AF;CG;Dolisie
2871;Antonio Agostinho-Neto International Airport;-4.81603;11.8866;AF;CG;Pointe Noire
308033;King Mswati III International Airport;-26.358611;31.716944;AF;SZ;Mpaka
2873;Bangui M'Poko International Airport;4.398479939;18.51880074;AF;CF;Bangui
2875;Bata Airport;1.90547;9.80568;AF;GQ;Bata
2876;Malabo Airport;3.755270004;8.708720207;AF;GQ;Malabo
2877;RAF Ascension Island;-7.9696;-14.3937;AF;SH;Cat Hill
2878;Sir Seewoosagur Ramgoolam International Airport;-20.430201;57.683601;AF;MU;Plaine Magnein
2879;Sir Charles Gaetan Duval Airport;-19.7577;63.361;AF;MU;Port Mathurin
2882;Douala International Airport;4.006080151;9.719479561;AF;CM;Douala
2883;Salak Airport;10.4513998;14.25739956;AF;CM;Maroua
2885;N'Gaoundéré Airport;7.357009888;13.55920029;AF;CM;N'Gaoundéré
2886;Garoua International Airport;9.335889816;13.37010002;AF;CM;Garoua
2889;Yaoundé Airport;3.83604002;11.52350044;AF;CM;Yaoundé
2890;Yaoundé Nsimalen International Airport;3.722559929;11.5532999;AF;CM;Yaoundé
2893;Harry Mwanga Nkumbula International Airport;-17.8218;25.822701;AF;ZM;Livingstone
2894;Kenneth Kaunda International Airport;-15.330833;28.452722;AF;ZM;Lusaka
2895;Mfuwe Airport;-13.25889969;31.93659973;AF;ZM;Mfuwe
2897;Simon Mwansa Kapwepwe International Airport;-12.998512;28.664047;AF;ZM;Ndola
2901;Prince Said Ibrahim International Airport;-11.5337;43.2719;AF;KM;Moroni
2902;Mohéli Bandar Es Eslam Airport;-12.2981;43.766399;AF;KM;Fomboni
2903;Ouani Airport;-12.131047;44.430044;AF;KM;Ouani
2904;Dzaoudzi Pamandzi International Airport;-12.809319;45.281815;AF;YT;Dzaoudzi
2905;Roland Garros Airport;-20.8871;55.5103;AF;RE;St Denis
2906;Pierrefonds Airport;-21.32089996;55.42499924;AF;RE;St Pierre
2908;Ivato Airport;-18.7969;47.478802;AF;MG;Antananarivo
2909;Miandrivazo Airport;-19.562799;45.450802;AF;MG;Miandrivazo
2910;Sainte Marie Airport;-17.093901;49.8158;AF;MG;Vohilava
2911;Toamasina Ambalamanasy Airport;-18.109501;49.392502;AF;MG;Toamasina
2912;Morondava Airport;-20.2847;44.3176;AF;MG;Morondava
2913;Arrachart Airport;-12.3494;49.291698;AF;MG;Antisiranana
2914;Mananara Nord Airport;-16.16390038;49.7737999;AF;MG;Mananara Nord
2917;Antsirabe Airport;-14.9994;50.320202;AF;MG;Antsirabe
2918;Analalava Airport;-14.629514;47.763555;AF;MG;Analalava
2919;Amborovy Airport;-15.666842;46.351233;AF;MG;Mahajanga
2920;Fascene Airport;-13.3121;48.3148;AF;MG;Nosy Be
2921;Besalampy Airport;-16.74453;44.482484;AF;MG;Besalampy
2922;Maroantsetra Airport;-15.437742;49.689081;AF;MG;Maroantsetra
2923;Sambava Airport;-14.2786;50.174702;AF;MG;Sambava
2924;Vohemar Airport;-13.3758;50.0028;AF;MG;Vohemar
2925;Ambalabe Airport;-14.8987999;47.9939003;AF;MG;Antsohihy
2927;Tôlanaro Airport;-25.038099;46.9561;AF;MG;Tôlanaro
2928;Fianarantsoa Airport;-21.441601;47.111698;AF;MG;Fianarantsoa
2930;Manakara Airport;-22.119699;48.021702;AF;MG;Manakara
2931;Mananjary Airport;-21.201799;48.358299;AF;MG;Mananjary
2932;Morombe Airport;-21.753837;43.374753;AF;MG;Morombe
2933;Toliara Airport;-23.3834;43.7285;AF;MG;Toliara
2934;Mbanza Congo Airport;-6.269899845;14.24699974;AF;AO;Mbanza Congo
2936;Cabinda Airport;-5.596990108;12.18840027;AF;AO;Cabinda
30813;Catumbela Airport;-12.4792;13.4869;AF;AO;Catumbela
2937;Dundo Airport;-7.400889874;20.81850052;AF;AO;Chitato
2938;Ngjiva Pereira Airport;-17.0435009;15.68379974;AF;AO;Ngiva
2939;Nova Lisboa Airport;-12.80889988;15.76049995;AF;AO;Huambo
2942;Quatro de Fevereiro International Airport;-8.85837;13.2312;AF;AO;Luanda
2944;Malanje Airport;-9.525090218;16.31240082;AF;AO;Malanje
2945;Menongue Airport;-14.6576004;17.71980095;AF;AO;Menongue
2946;Welwitschia Mirabilis International Airport;-15.2612;12.1468;AF;AO;Moçâmedes
2947;Negage Airport;-7.754509926;15.2876997;AF;AO;Negage
2950;Soyo Airport;-6.141089916;12.37180042;AF;AO;Soyo
2952;Lubango Airport;-14.92469978;13.57499981;AF;AO;Lubango
2957;Koulamoutou Mabimbi Airport;-1.184610009;12.44130039;AF;GA;Koulamoutou
2958;Mouilla Ville Airport;-1.84513998;11.05669975;AF;GA;Mouila
2959;Oyem Airport;1.543110013;11.58139992;AF;GA;Oyem
2963;Port Gentil Airport;-0.711739004;8.754380226;AF;GA;Port Gentil
2965;Makokou Airport;0.579210997;12.89089966;AF;GA;Makokou
2966;Libreville Leon M'ba International Airport;0.458600014;9.412280083;AF;GA;Libreville
2967;M'Vengue El Hadj Omar Bongo Ondimba International Airport;-1.656159997;13.43799973;AF;GA;Franceville
2968;Principe Airport;1.66294;7.41174;AF;ST;São Tomé & Príncipe
2969;São Tomé International Airport;0.378175;6.71215;AF;ST;São Tomé
2970;Beira Airport;-19.79640007;34.9076004;AF;MZ;Beira
2971;Chimoio Airport;-19.15130043;33.42900085;AF;MZ;Chimoio
2972;Inhambane Airport;-23.8764;35.408501;AF;MZ;Inhambane
2973;Lichinga Airport;-13.274;35.2663;AF;MZ;Lichinga
2975;Maputo Airport;-25.920799;32.572601;AF;MZ;Maputo
2980;Nampula Airport;-15.10560036;39.28179932;AF;MZ;Nampula
2981;Pemba Airport;-12.99176216;40.52401352;AF;MZ;Pemba / Porto Amelia
2982;Quelimane Airport;-17.85549927;36.86909866;AF;MZ;Quelimane
2984;Chingozi Airport;-16.10479927;33.64020157;AF;MZ;Tete
2986;Vilankulo Airport;-22.01840019;35.31330109;AF;MZ;Vilanculo
2993;Seychelles International Airport;-4.67434;55.521801;AF;SC;Mahe Island
2994;Praslin Airport;-4.31929;55.691399;AF;SC;Grand Anse
2996;Abeche Airport;13.847;20.844299;AF;TD;Abeche
2997;Moundou Airport;8.62441;16.0714;AF;TD;Moundou
2998;N'Djamena International Airport;12.1337;15.034;AF;TD;N'Djamena
3000;Joshua Mqabuko Nkomo International Airport;-20.017401;28.617901;AF;ZW;Bulawayo
3004;Victoria Falls International Airport;-18.09589958;25.8390007;AF;ZW;Victoria Falls
3005;Robert Gabriel Mugabe International Airport;-17.931801;31.0928;AF;ZW;Harare
3015;Chileka International Airport;-15.67910004;34.97399902;AF;MW;Blantyre
3018;Lilongwe International Airport;-13.7894001;33.78099823;AF;MW;Lilongwe
3020;Mzuzu Airport;-11.44470024;34.01179886;AF;MW;Mzuzu
3022;Moshoeshoe I International Airport;-29.46229935;27.55249977;AF;LS;Maseru
3029;Luderitz Airport;-26.68740082;15.24289989;AF;NA;Luderitz
3031;Ondangwa Airport;-17.878201;15.9526;AF;NA;Ondangwa
3032;Oranjemund Airport;-28.5847;16.446699;AF;NA;Oranjemund
3035;Rundu Airport;-17.9564991;19.71940041;AF;NA;Rundu
3037;Walvis Bay Airport;-22.9799;14.6453;AF;NA;Walvis Bay
3038;Eros Airport;-22.61219978;17.08040047;AF;NA;Windhoek
3039;Hosea Kutako International Airport;-22.4799;17.4709;AF;NA;Windhoek
3040;Ndjili International Airport;-4.38575;15.4446;AF;CD;Kinshasa
3044;Bandundu Airport;-3.31132;17.381701;AF;CD;Bandundu
3045;Kikwit Airport;-5.03577;18.785601;AF;CD;Kikwit
3046;Mbandaka Airport;0.022600001;18.2887001;AF;CD;Mbandaka
3047;Gbadolite Airport;4.25321;20.9753;AF;CD;Gbadolite
3048;Gemena Airport;3.235369921;19.77129936;AF;CD;Gemena
3052;Bangoka International Airport;0.481638998;25.33799934;AF;CD;Kisangani
3053;Matari Airport;2.827610016;27.5883007;AF;CD;
3054;Bunia Airport;1.565719962;30.2208004;AF;CD;
3057;Goma International Airport;-1.670809984;29.2385006;AF;CD;Goma
3058;Kindu Airport;-2.919179916;25.91539955;AF;CD;Kindu
3059;Lubumbashi International Airport;-11.59130001;27.53089905;AF;CD;Lubumbashi
3060;Kolwezi Airport;-10.76589966;25.50569916;AF;CD;
3061;Kalemie Airport;-5.875559807;29.25;AF;CD;
3063;Kananga Airport;-5.900050163;22.46920013;AF;CD;Kananga
3064;Mbuji Mayi Airport;-6.121240139;23.56900024;AF;CD;Mbuji Mayi
3066;Modibo Keita International Airport;12.5335;-7.94994;AF;ML;Bamako
3067;Gao Airport;16.24839973;-0.005456;AF;ML;
3068;Kayes Dag Dag Airport;14.4812;-11.4044;AF;ML;
3069;Mopti Ambodédjo International Airport;14.5128;-4.07956;AF;ML;Sévaré
3071;Timbuktu Airport;16.730499;-3.00758;AF;ML;Timbuktu
3076;Banjul International Airport;13.338;-16.652201;AF;GM;Banjul
3077;Fuerteventura Airport;28.4527;-13.8638;AF;ES;El Matorral
3079;El Hierro Airport;27.8148;-17.8871;EU;ES;El Hierro Island
3080;La Palma Airport;28.626499;-17.7556;EU;ES;Sta Cruz de la Palma, La Palma Island
3081;Gran Canaria Airport;27.9319;-15.3866;EU;ES;Gran Canaria Island
3082;César Manrique-Lanzarote Airport;28.945499;-13.6052;AF;ES;San Bartolomé
3083;Tenerife Sur Airport;28.0445;-16.5725;EU;ES;Tenerife
3084;Tenerife Norte-Ciudad de La Laguna Airport;28.4827;-16.341499;EU;ES;Tenerife
3093;Melilla Airport;35.2798;-2.95626;EU;ES;Melilla
31728;Bo Airport;7.9444;-11.761;AF;SL;Bo
31741;Kenema Airport;7.896364;-11.174126;AF;SL;Kenema
3095;Lungi International Airport;8.61644;-13.1955;AF;SL;Freetown (Lungi-Town)
32689;Yengema Airport;8.610469818;-11.04539967;AF;SL;Yengema
3097;Osvaldo Vieira International Airport;11.89480019;-15.65369987;AF;GW;Bissau
3098;Spriggs Payne Airport;6.289060116;-10.75870037;AF;LR;Monrovia
3099;Roberts International Airport;6.23379;-10.3623;AF;LR;Monrovia
3101;Al Massira Airport;30.322478;-9.412003;AF;MA;Agadir (Temsia)
3102;Tan Tan Airport;28.44820023;-11.16129971;AF;MA;Tan Tan
3103;Fes Saïss International Airport;33.927299;-4.97796;AF;MA;Saïss
3105;Moulay Ali Cherif Airport;31.94750023;-4.398330212;AF;MA;Errachidia
3107;Oujda Angads Airport;34.789558;-1.926041;AF;MA;Ahl Angad
3108;Smara Airport;26.731987;-11.683655;AF;EH;Smara
3109;Rabat-Salé Airport;34.051498;-6.75152;AF;MA;Rabat
3110;Dakhla Airport;23.7183;-15.932;AF;EH;Dakhla
3111;Essaouira-Mogador Airport;31.397499;-9.68167;AF;MA;Essaouira
3112;Hassan I Airport;27.142467;-13.224947;AF;EH;El Aaiún
3113;Mohammed V International Airport;33.36750031;-7.589970112;AF;MA;Casablanca
3114;Nador Al Aaroui International Airport;34.9888;-3.02821;AF;MA;Al Aaroui
3115;Menara Airport;31.60689926;-8.036299706;AF;MA;Marrakech
3117;Ouarzazate Airport;30.93910027;-6.909430027;AF;MA;Ouarzazate
319715;Golog Maqên Airport;34.418066;100.301144;AS;CN;Golog (Maqên)
3119;Cherif Al Idrissi Airport;35.17710114;-3.839519978;AF;MA;Al Hoceima
3121;Tangier Ibn Battuta Airport;35.731741;-5.921459;AF;MA;Tangier
325736;Blaise Diagne International Airport;14.67;-17.073333;AF;SN;Dakar
3122;Ziguinchor Airport;12.5556;-16.281799;AF;SN;Ziguinchor
3123;Cap Skirring Airport;12.39533;-16.748;AF;SN;Cap Skirring
31879;Ouro Sogui Airport;15.5936;-13.3228;AF;SN;Ouro Sogui
3126;Saint Louis Airport;16.049814;-16.461039;AF;SN;Saint Louis
3129;Tambacounda Airport;13.73680019;-13.65310001;AF;SN;Tambacounda
323315;Nouakchott–Oumtounsy International Airport;18.31;-15.9697222;AF;MR;Nouakchott
3138;Nouadhibou International Airport;20.93309975;-17.03000069;AF;MR;Nouadhibou
3146;Conakry International Airport;9.57689;-13.612;AF;GN;Conakry
3150;Amílcar Cabral International Airport;16.7414;-22.9494;AF;CV;Espargos
3151;Rabil Airport;16.1364994;-22.88890076;AF;CV;Rabil
3152;Maio Airport;15.1559;-23.21369934;AF;CV;Vila do Maio
3153;Praia International Airport;14.92450047;-23.49349976;AF;CV;Praia
3154;Preguiça Airport;16.588852;-24.284132;AF;CV;Preguiça
3155;São Pedro Airport;16.8332;-25.0553;AF;CV;São Pedro
3157;Addis Ababa Bole International Airport;8.97789;38.799301;AF;ET;Addis Ababa
3159;Arba Minch Airport;6.039390087;37.59049988;AF;ET;
3160;Axum Airport;14.14680004;38.77280045;AF;ET;
3161;Bahir Dar Airport;11.60809994;37.32160187;AF;ET;Bahir Dar
3162;Aba Tenna Dejazmach Yilma International Airport;9.624699593;41.85419846;AF;ET;Dire Dawa
3163;Gambella Airport;8.128760338;34.56309891;AF;ET;Gambela
3164;Gonder Airport;12.51990032;37.43399811;AF;ET;Gondar
3165;Gode Airport;5.935130119;43.57860184;AF;ET;Gode
313314;Wilwal International Airport;9.3325;42.9121;AF;ET;Jijiga
3166;Jimma Airport;7.666090012;36.8166008;AF;ET;Jimma
30612;Kebri Dahar Airport;6.732577;44.241339;AF;ET;Kebri Dahar
3169;Asosa Airport;10.01850033;34.5862999;AF;ET;Asosa
3170;Bujumbura Melchior Ndadaye International Airport;-3.32402;29.318501;AF;BI;Bujumbura
3171;Egal International Airport;9.513207;44.082389;AF;SO;Hargeisa
3172;Berbera Airport;10.385035;44.936723;AF;SO;Berbera
31899;Aden Adde International Airport;2.01444006;45.30469894;AF;SO;Mogadishu
3174;Djibouti-Ambouli Airport;11.5473;43.1595;AF;DJ;Djibouti City
3176;El Arish International Airport;31.07329941;33.83580017;AS;EG;El Arish
3177;Asyut International Airport;27.050818;31.016309;AF;EG;Asyut
3180;Borj El Arab International Airport;30.93249;29.696437;AF;EG;Alexandria
3181;Abu Simbel Airport;22.37599945;31.61170006;AF;EG;Abu Simbel
3183;Cairo International Airport;30.12190056;31.40559959;AF;EG;Cairo
3186;Hurghada International Airport;27.180325;33.807292;AF;EG;Hurghada
3191;Luxor International Airport;25.674629;32.700012;AF;EG;Luxor
3192;Marsa Alam International Airport;25.5571003;34.58369827;AF;EG;Marsa Alam
3193;Marsa Matruh Airport;31.325399;27.221701;AF;EG;Marsa Matruh
300893;Suhaj Mubarak International Airport;26.339115;31.737624;AF;EG;Suhaj
3198;Sharm El Sheikh International Airport;27.977301;34.395;AS;EG;Sharm el-Sheikh
3199;Aswan International Airport;23.96439934;32.81999969;AF;EG;Aswan
3200;Taba International Airport;29.587799;34.778099;AS;EG;Taba
3202;Asmara International Airport;15.29189968;38.91070175;AF;ER;Asmara
3203;Massawa International Airport;15.67000008;39.37009811;AF;ER;Massawa
3204;Assab International Airport;13.07180023;42.64500046;AF;ER;Asab
300863;Huai'an Lianshui International Airport;33.790833;119.125;AS;CN;Huai'an
3247;Juba International Airport;4.87201;31.601101;AF;SS;Juba
28481;Amboseli Airport;-2.645050049;37.25310135;AF;KE;Amboseli National Park
3205;Eldoret International Airport;0.404457986;35.23889923;AF;KE;Eldoret
3206;Jomo Kenyatta International Airport;-1.319239974;36.92779922;AF;KE;Nairobi
3208;Kisumu Airport;-0.086139001;34.72890091;AF;KE;Kisumu
3210;Lokichoggio Airport;4.204120159;34.34820175;AF;KE;Lokichoggio
3212;Manda Airport;-2.252431;40.912892;AF;KE;Lamu
31988;Malindi Airport;-3.229310036;40.10169983;AF;KE;Malindi
3213;Moi International Airport;-4.03483;39.5942;AF;KE;Mombasa
31594;Mara Serena Lodge Airstrip;-1.406111;35.008057;AF;KE;Masai Mara
3215;Nairobi Wilson Airport;-1.321720004;36.81480026;AF;KE;Nairobi
32066;Nanyuki Airport;-0.062399;37.041008;AF;KE;Nanyuki
3217;Wajir Airport;1.73324;40.091599;AF;KE;Wajir
3219;Sirt International Airport / Ghardabiya Airbase;31.063499;16.594999;AF;LY;Sirt
3221;Ghat Airport;25.14559937;10.14260006;AF;LY;Ghat
3222;Kufra Airport;24.17869949;23.31399918;AF;LY;Kufra
3223;Benina International Airport;32.096802;20.269501;AF;LY;Benina
3224;Mitiga International Airport;32.89177;13.287878;AF;LY;Tripoli
3225;Al Abraq International Airport;32.7887;21.9643;AF;LY;Al Albraq
3226;Sabha Airport;26.992452;14.466162;AF;LY;Sabha
3232;Ghadames East Airport;30.15169907;9.715310097;AF;LY;Ghadames
3237;Kigali International Airport;-1.96863;30.1395;AF;RW;Kigali
3238;Kamembe Airport;-2.462239981;28.90789986;AF;RW;Kamembe
3239;Dongola Airport;19.15390015;30.43009949;AF;SD;Dongola
3241;El Fasher Airport;13.61489964;25.32460022;AF;SD;El Fasher
3242;Kassala Airport;15.38749981;36.3288002;AF;SD;Kassala
3244;Nyala Airport;12.0535;24.9562;AF;SD;Nyala
3245;El Obeid Airport;13.15320015;30.23270035;AF;SD;Al-Ubayyid
3246;Port Sudan New International Airport;19.43359947;37.23410034;AF;SD;Port Sudan
3249;Khartoum International Airport;15.5895;32.5532;AF;SD;Khartoum
3248;Malakal Airport;9.55897;31.652201;AF;SS;Malakal
30553;Wau Airport;7.72583;27.975;AF;SS;Wau
3250;Arusha Airport;-3.367789984;36.63330078;AF;TZ;Arusha
3251;Julius Nyerere International Airport;-6.87811;39.202599;AF;TZ;Dar es Salaam
3252;Dodoma Airport;-6.17044;35.752602;AF;TZ;Dodoma
318875;Songwe Airport;-8.919942;33.273981;AF;TZ;Mbeya
3254;Kilimanjaro International Airport;-3.42941;37.074501;AF;TZ;Arusha
3256;Mtwara Airport;-10.336204;40.181997;AF;TZ;Mtwara
3257;Mwanza Airport;-2.444489956;32.93270111;AF;TZ;Mwanza
3259;Tanga Airport;-5.09236;39.071201;AF;TZ;Tanga
3260;Abeid Amani Karume International Airport;-6.22202;39.224899;AF;TZ;Zanzibar
32234;Arua Airport;3.049152;30.911714;AF;UG;Arua
3263;Entebbe International Airport;0.042386;32.443501;AF;UG;Kampala
3264;Gulu Airport;2.805560112;32.27180099;AF;UG;Gulu
3265;Soroti Airport;1.727689981;33.62279892;AF;UG;Soroti
29639;Bilogai-Sugapa Airport;-3.73956;137.031998;AS;ID;Sugapa-Papua Island
327608;New Ishigaki Airport;24.396389;124.245;AS;JP;Ishigaki
301009;Jiagedaqi Airport;50.371389;124.1175;AS;CN;Jiagedaqi
300865;Qianjiang Wulingshan Airport;29.51333333;108.8311111;AS;CN;Qianjiang
323221;Jericoacoara - Comandante Ariston Pessoa Regional Airport;-2.906425;-40.357338;SA;BR;Cruz
339959;Jinzhou Bay Airport;40.936032;121.277114;AS;CN;Linghai, Jinzhou
3356;Lehigh Valley International Airport;40.651773;-75.442797;NA;US;Allentown
3357;Abilene Regional Airport;32.41130066;-99.68190002;NA;US;Abilene
16091;Albuquerque International Sunport;35.040199;-106.609001;NA;US;Albuquerque
3358;Aberdeen Regional Airport;45.44910049;-98.42179871;NA;US;Aberdeen
3359;Southwest Georgia Regional Airport;31.532946;-84.196215;NA;US;Albany
3360;Nantucket Memorial Airport;41.25310135;-70.06020355;NA;US;Nantucket
3361;Waco Regional Airport;31.61129951;-97.23049927;NA;US;Waco
3362;California Redwood Coast-Humboldt County Airport;40.978101;-124.109;NA;US;Arcata/Eureka
3363;Atlantic City International Airport;39.45759964;-74.57720184;NA;US;Atlantic City
3365;Alexandria International Airport;31.3274;-92.549797;NA;US;Alexandria
3368;Augusta Regional At Bush Field;33.3699;-81.9645;NA;US;Augusta
3369;Athens Ben Epps Airport;33.94860077;-83.32630157;NA;US;Athens
3371;Albany International Airport;42.74829865;-73.80169678;NA;US;Albany
3375;Waterloo Regional Airport;42.55709839;-92.40029907;NA;US;Waterloo
19275;San Luis Valley Regional Airport/Bergman Field;37.434898;-105.866997;NA;US;Alamosa
3376;Walla Walla Regional Airport;46.09489822;-118.288002;NA;US;Walla Walla
3377;Rick Husband Amarillo International Airport;35.219398;-101.706001;NA;US;Amarillo
3380;Altoona Blair County Airport;40.296398;-78.32;NA;US;Altoona
3382;Alpena County Regional Airport;45.0780983;-83.56030273;NA;US;Alpena
3383;Watertown International Airport;43.9919014;-76.021698;NA;US;Watertown
19308;Aspen-Pitkin Co/Sardy Field;39.22320175;-106.8690033;NA;US;Aspen
3384;Hartsfield Jackson Atlanta International Airport;33.6367;-84.428101;NA;US;Atlanta
3385;Watertown Regional Airport;44.91400146;-97.15470123;NA;US;Watertown
19321;Augusta State Airport;44.3205986;-69.79730225;NA;US;Augusta
3386;Austin Bergstrom International Airport;30.197535;-97.662015;NA;US;Austin
3387;Asheville Regional Airport;35.436199;-82.541801;NA;US;Asheville
3388;Wilkes Barre Scranton International Airport;41.33850098;-75.7233963;NA;US;Wilkes-Barre/Scranton
3390;Kalamazoo Battle Creek International Airport;42.23490143;-85.55210114;NA;US;Kalamazoo
3396;Bradley International Airport;41.93851;-72.688066;NA;US;Hartford
3397;Igor I Sikorsky Memorial Airport;41.16350174;-73.12619781;NA;US;Bridgeport
3399;Bradford Regional Airport;41.80310059;-78.64009857;NA;US;Bradford
3400;Western Neb. Rgnl/William B. Heilig Airport;41.87400055;-103.5960007;NA;US;Scottsbluff
3401;Boeing Field King County International Airport;47.529999;-122.302002;NA;US;Seattle
3402;Meadows Field;35.433601;-119.056999;NA;US;Bakersfield
3404;Greater Binghamton/Edwin A Link field;42.20869827;-75.97979736;NA;US;Binghamton
3405;Bangor International Airport;44.8074;-68.828102;NA;US;Bangor
19373;Hancock County-Bar Harbor Airport;44.45000076;-68.3615036;NA;US;Bar Harbor
3406;Birmingham-Shuttlesworth International Airport;33.562901;-86.753502;NA;US;Birmingham
3408;Billings Logan International Airport;45.807701;-108.542999;NA;US;Billings
3409;Bismarck Municipal Airport;46.77270126;-100.7460022;NA;US;Bismarck
3415;Raleigh County Memorial Airport;37.78730011;-81.12419891;NA;US;Beckley
19387;Mercer County Airport;37.295799;-81.207703;NA;US;Bluefield
3416;Bellingham International Airport;48.7928009;-122.538002;NA;US;Bellingham
3417;Scott AFB/Midamerica Airport;38.5452;-89.835197;NA;US;Belleville
3419;Central Illinois Regional Airport at Bloomington-Normal;40.4771;-88.915901;NA;US;Bloomington/Normal
3420;Nashville International Airport;36.12450027;-86.67819977;NA;US;Nashville
3421;Boise Air Terminal/Gowen Field;43.5644;-116.223;NA;US;Boise
3422;Logan International Airport;42.3643;-71.005203;NA;US;Boston
3423;Jack Brooks Regional Airport;29.9508;-94.020699;NA;US;Beaumont/Port Arthur
3424;Brunswick Golden Isles Airport;31.25880051;-81.46649933;NA;US;Brunswick
19406;Brainerd Lakes Regional Airport;46.402861;-94.129727;NA;US;Brainerd
3425;Southeast Iowa Regional Airport;40.78319931;-91.12550354;NA;US;Burlington
3426;Brownsville South Padre Island International Airport;25.90679932;-97.42590332;NA;US;Brownsville
3428;Bert Mooney Airport;45.95479965;-112.4970016;NA;US;Butte
3429;Baton Rouge Metropolitan Airport;30.533199;-91.149597;NA;US;Baton Rouge
3430;Burlington International Airport;44.471901;-73.153297;NA;US;South Burlington
3431;Buffalo Niagara International Airport;42.94049835;-78.73220062;NA;US;Buffalo
3432;Bob Hope Airport;34.197703;-118.356378;NA;US;Burbank
3435;Baltimore/Washington International Thurgood Marshall Airport;39.1754;-76.668297;NA;US;Baltimore
3437;Gallatin Field;45.77750015;-111.1529999;NA;US;Bozeman
3438;Columbia Metropolitan Airport;33.938801;-81.119499;NA;US;Columbia
3439;Akron Canton Regional Airport;40.91609955;-81.44219971;NA;US;Akron
3442;Cedar City Regional Airport;37.70100021;-113.098999;NA;US;Cedar City
3443;Jack Mc Namara Field Airport;41.78020096;-124.2369995;NA;US;Crescent City
3447;Cape Girardeau Regional Airport;37.2253;-89.570801;NA;US;Cape Girardeau
3448;Chattanooga Metropolitan Airport (Lovell Field);35.035301;-85.203796;NA;US;Chattanooga
3449;Charlottesville Albemarle Airport;38.1385994;-78.45290375;NA;US;Charlottesville
3450;Charleston International Airport;32.898602;-80.040497;NA;US;Charleston
3451;The Eastern Iowa Airport;41.884701;-91.7108;NA;US;Cedar Rapids
3452;Chippewa County International Airport;46.25080109;-84.47239685;NA;US;Sault Ste Marie
3453;North Central West Virginia Airport;39.29660034;-80.22810364;NA;US;Clarksburg
3454;Cleveland Hopkins International Airport;41.4117012;-81.84980011;NA;US;Cleveland
3455;Easterwood Field;30.58860016;-96.36380005;NA;US;College Station
3456;William R Fairchild International Airport;48.12020111;-123.5;NA;US;Port Angeles
3457;Charlotte Douglas International Airport;35.2140007;-80.94309998;NA;US;Charlotte
3458;John Glenn Columbus International Airport;39.998001;-82.891899;NA;US;Columbus
3459;University of Illinois Willard Airport;40.039819;-88.276249;NA;US;Savoy
3460;Houghton County Memorial Airport;47.16839981;-88.4890976;NA;US;Hancock
3461;Cavern City Air Terminal;32.33750153;-104.2630005;NA;US;Carlsbad
3463;City of Colorado Springs Municipal Airport;38.805801;-104.700996;NA;US;Colorado Springs
3464;Columbia Regional Airport;38.8181;-92.219597;NA;US;Columbia
3465;Casper-Natrona County International Airport;42.908001;-106.463997;NA;US;Casper
3466;Corpus Christi International Airport;27.770399;-97.501198;NA;US;Corpus Christi
3467;Yeager Airport;38.3731;-81.593201;NA;US;Charleston
3468;Columbus Metropolitan Airport;32.5163002;-84.93890381;NA;US;Columbus
3471;Cincinnati Northern Kentucky International Airport;39.048801;-84.667801;NA;US;Cincinnati / Covington
3476;Cheyenne Regional Jerry Olson Field;41.155701;-104.811997;NA;US;Cheyenne
3478;Daytona Beach International Airport;29.179899;-81.058098;NA;US;Daytona Beach
3479;Dallas Love Field;32.847099;-96.851799;NA;US;Dallas
3481;James M Cox Dayton International Airport;39.902401;-84.219398;NA;US;Dayton
3482;Dubuque Regional Airport;42.402;-90.709503;NA;US;Dubuque
3483;Ronald Reagan Washington National Airport;38.8521;-77.037697;NA;US;Washington
3484;Dodge City Regional Airport;37.76340103;-99.96559906;NA;US;Dodge City
3485;Decatur Airport;39.83459854;-88.86569977;NA;US;Decatur
3486;Denver International Airport;39.86169815;-104.6729965;NA;US;Denver
3488;Dallas Fort Worth International Airport;32.896801;-97.038002;NA;US;Dallas-Fort Worth
3489;Dothan Regional Airport;31.32130051;-85.44960022;NA;US;Dothan
3491;Duluth International Airport;46.842098;-92.193604;NA;US;Duluth
3496;Des Moines International Airport;41.534;-93.663101;NA;US;Des Moines
3497;Detroit Metropolitan Wayne County Airport;42.21239853;-83.35340118;NA;US;Detroit
3498;DuBois Regional Airport;41.17829895;-78.8986969;NA;US;Dubois
19716;Kearney Regional Airport;40.727001;-99.006798;NA;US;Kearney
3501;Chippewa Valley Regional Airport;44.86579895;-91.48429871;NA;US;Eau Claire
46530;Northwest Florida Beaches International Airport;30.357106;-85.795414;NA;US;Panama City Beach
3505;Eagle County Regional Airport;39.64260101;-106.9179993;NA;US;Eagle
3508;Elko Regional Airport;40.82490158;-115.7919998;NA;US;Elko
3509;South Arkansas Regional At Goodwin Field;33.22100067;-92.81330109;NA;US;El Dorado
3510;Elmira Corning Regional Airport;42.15990067;-76.89160156;NA;US;Elmira/Corning
3512;El Paso International Airport;31.80719948;-106.3779984;NA;US;El Paso
3515;Erie International Tom Ridge Field;42.083127;-80.173867;NA;US;Erie
3517;Mahlon Sweet Field;44.12459946;-123.211998;NA;US;Eugene
3518;Evansville Regional Airport;38.03699875;-87.53240204;NA;US;Evansville
3519;New Bedford Regional Airport;41.67610168;-70.95690155;NA;US;New Bedford
3520;Coastal Carolina Regional Airport;35.07300186;-77.04290009;NA;US;New Bern
3521;Newark Liberty International Airport;40.692501;-74.168701;NA;US;Newark
3522;Key West International Airport;24.556101;-81.759598;NA;US;Key West
3523;Hector International Airport;46.92070007;-96.81580353;NA;US;Fargo
3524;Fresno Yosemite International Airport;36.776199;-119.718002;NA;US;Fresno
3525;Fayetteville Regional Airport - Grannis Field;34.991199;-78.880302;NA;US;Fayetteville
3529;Sierra Vista Municipal Airport / Libby Army Air Field;31.587383;-110.348225;NA;US;Fort Huachuca / Sierra Vista
3530;Flagstaff Pulliam International Airport;35.1385;-111.670998;NA;US;Flagstaff
3531;Fort Lauderdale Hollywood International Airport;26.072599;-80.152702;NA;US;Fort Lauderdale
3532;Florence Regional Airport;34.1853981;-79.72389984;NA;US;Florence
3535;Bishop International Airport;42.9654007;-83.74359894;NA;US;Flint
3536;Fort Dodge Regional Airport;42.55149841;-94.19259644;NA;US;Fort Dodge
3541;Sioux Falls Regional Airport / Joe Foss Field;43.585463;-96.741152;NA;US;Sioux Falls
3543;Fort Smith Regional Airport;35.336601;-94.367401;NA;US;Fort Smith
3547;Fort Wayne International Airport;40.9785;-85.195099;NA;US;Fort Wayne
41534;Jalal-Abad Airport;40.944401;72.977798;AS;KG;Jalal-Abad
19929;Northeast Wyoming Regional Airport;44.3489;-105.539001;NA;US;Gillette
3550;Garden City Regional Airport;37.92750168;-100.723999;NA;US;Garden City
3551;Grand Canyon National Park Airport;35.9524;-112.147003;NA;US;Grand Canyon - Tusayan
3552;Spokane International Airport;47.6199;-117.533997;NA;US;Spokane
3553;Grand Forks International Airport;47.949299;-97.176102;NA;US;Grand Forks
3555;East Texas Regional Airport;32.38399887;-94.71150208;NA;US;Longview
3556;Wokal Field/Glasgow-Valley County Airport;48.212502;-106.614998;NA;US;Glasgow
3557;Grand Junction Regional Airport;39.126663;-108.529387;NA;US;Grand Junction
19958;Mid Delta Regional Airport;33.48289871;-90.98560333;NA;US;Greenville
3559;Gainesville Regional Airport;29.69009972;-82.27179718;NA;US;Gainesville
3527;Glacier Park International Airport;48.3105011;-114.2559967;NA;US;Kalispell
3561;Gulfport Biloxi International Airport;30.407301;-89.070099;NA;US;Gulfport
3562;Austin Straubel International Airport;44.483459;-88.130805;NA;US;Green Bay
3564;Central Nebraska Regional Airport;40.96749878;-98.30960083;NA;US;Grand Island
3565;Killeen-Fort Hood Regional Airport / Robert Gray Army Air Field;31.0672;-97.828903;NA;US;Killeen
3566;Gerald R. Ford International Airport;42.88079834;-85.52279663;NA;US;Grand Rapids
3568;Piedmont Triad International Airport;36.097801;-79.937302;NA;US;Greensboro
3569;Greenville Spartanburg International Airport;34.895699;-82.218903;NA;US;Greer
3571;Great Falls International Airport;47.48199844;-111.3710022;NA;US;Great Falls
19982;Golden Triangle Regional Airport;33.45029831;-88.59140015;NA;US;Columbus/W Point/Starkville
3579;Range Regional Airport;47.3866;-92.838997;NA;US;Hibbing
20053;Lake Havasu City International Airport;34.571098;-114.358002;NA;US;Lake Havasu City
3582;Helena Regional Airport;46.6068;-111.983002;NA;US;Helena
3585;Huron Regional Airport;44.3852005;-98.22850037;NA;US;Huron
3587;Memorial Field Airport;34.4788;-93.096262;NA;US;Hot Springs
3588;William P Hobby Airport;29.645399;-95.2789;NA;US;Houston
3589;Westchester County Airport;41.06700134;-73.70760345;NA;US;White Plains
3591;Valley International Airport;26.22850037;-97.65440369;NA;US;Harlingen
3592;Boone County Airport;36.26150131;-93.15470123;NA;US;Harrison
3594;Huntsville International Carl T Jones Field;34.637199;-86.775101;NA;US;Huntsville
3595;Tri-State/Milton J. Ferguson Field;38.366699;-82.557999;NA;US;Huntington
3599;Tweed New Haven Airport;41.26369858;-72.88680267;NA;US;New Haven
3600;Barnstable Municipal Boardman Polando Field;41.66930008;-70.28040314;NA;US;Hyannis
3602;Washington Dulles International Airport;38.9445;-77.455803;NA;US;Washington, DC
3603;Niagara Falls International Airport;43.1073;-78.946198;NA;US;Niagara Falls
3604;George Bush Intercontinental Houston Airport;29.9843998;-95.34140015;NA;US;Houston
3605;Wichita Eisenhower National Airport;37.649899;-97.433098;NA;US;Wichita
3606;Idaho Falls Regional Airport;43.514599;-112.070999;NA;US;Idaho Falls
3608;New Castle Airport;39.67869949;-75.60649872;NA;US;Wilmington
3609;Wilmington International Airport;34.27059937;-77.90260315;NA;US;Wilmington
3610;Indianapolis International Airport;39.7173;-86.294403;NA;US;Indianapolis
3612;Falls International Airport;48.56620026;-93.40309906;NA;US;International Falls
3614;Williamsport Regional Airport;41.2417984;-76.9210968;NA;US;Williamsport
3615;Kirksville Regional Airport;40.09349823;-92.54489899;NA;US;Kirksville
3616;Long Island Mac Arthur Airport;40.79520035;-73.10019684;NA;US;Islip
20193;Ithaca Tompkins Regional Airport;42.49100113;-76.45839691;NA;US;Ithaca
3617;Phoenix–Mesa Gateway Airport;33.3078;-111.654999;NA;US;Mesa
3618;Jackson Hole Airport;43.6072998;-110.737999;NA;US;Jackson
3619;Jackson-Medgar Wiley Evers International Airport;32.311199;-90.075897;NA;US;Jackson
3620;Jacksonville International Airport;30.49410057;-81.68789673;NA;US;Jacksonville
3621;Jonesboro Municipal Airport;35.83169937;-90.64640045;NA;US;Jonesboro
3622;John F Kennedy International Airport;40.639801;-73.7789;NA;US;New York
3623;Joplin Regional Airport;37.151798;-94.498299;NA;US;Joplin
3624;Jamestown Regional Airport;46.92969894;-98.67819977;NA;US;Jamestown
20220;Concord-Padgett Regional Airport;35.387798;-80.709099;NA;US;Concord
3625;John Murtha Johnstown Cambria County Airport;40.31610107;-78.83390045;NA;US;Johnstown
3629;Capital City Airport;42.77870178;-84.58740234;NA;US;Lansing
3630;Laramie Regional Airport;41.31209946;-105.6750031;NA;US;Laramie
3631;Harry Reid International Airport;36.080101;-115.152;NA;US;Las Vegas
3632;Los Angeles International Airport;33.942501;-118.407997;NA;US;Los Angeles
3633;Lubbock Preston Smith International Airport;33.663601;-101.822998;NA;US;Lubbock
3634;Arnold Palmer Regional Airport;40.275902;-79.4048;NA;US;Latrobe
3635;North Platte Regional Airport Lee Bird Field;41.12620163;-100.6839981;NA;US;North Platte
3636;Liberal Mid-America Regional Airport;37.0442009;-100.9599991;NA;US;Liberal
3637;Lake Charles Regional Airport;30.12610054;-93.22329712;NA;US;Lake Charles
3638;Rickenbacker International Airport;39.813801;-82.927803;NA;US;Columbus
3639;Lebanon Municipal Airport;43.62609863;-72.30419922;NA;US;Lebanon
3640;Blue Grass Airport;38.036499;-84.605904;NA;US;Lexington
3642;Lafayette Regional Airport;30.205299;-91.987602;NA;US;Lafayette
3643;La Guardia Airport;40.777199;-73.872597;NA;US;New York
3644;Long Beach Airport (Daugherty Field);33.817699;-118.152;NA;US;Long Beach
3645;Bill & Hillary Clinton National Airport/Adams Field;34.729582;-92.223728;NA;US;Little Rock
3646;Crater Lake-Klamath Regional Airport;42.156101;-121.733002;NA;US;Klamath Falls
3647;Lincoln Airport;40.85100174;-96.75920105;NA;US;Lincoln
3648;Lancaster Airport;40.12170029;-76.2960968;NA;US;Lancaster
3651;Laredo International Airport;27.54380035;-99.46160126;NA;US;Laredo
3654;La Crosse Regional Airport;43.879002;-91.256699;NA;US;La Crosse
20393;Lewiston Nez Perce County Airport;46.37450027;-117.0149994;NA;US;Lewiston
3661;Lewistown Municipal Airport;47.04930115;-109.4670029;NA;US;Lewistown
3662;Lynchburg Regional Airport - Preston Glenn Field;37.326698;-79.200401;NA;US;Lynchburg
3663;Midland International Airport;31.94249916;-102.2020035;NA;US;Midland
3664;MBS International Airport;43.532902;-84.079597;NA;US;Saginaw
3668;Kansas City International Airport;39.2976;-94.713898;NA;US;Kansas City
3669;Middle Georgia Regional Airport;32.69279861;-83.64920044;NA;US;Macon
3670;Orlando International Airport;28.42939949;-81.30899811;NA;US;Orlando
3672;Harrisburg International Airport;40.19350052;-76.76339722;NA;US;Harrisburg
3673;Chicago Midway International Airport;41.785999;-87.752403;NA;US;Chicago
3674;Key Field / Meridian Regional Airport;32.3326;-88.7519;NA;US;Meridian
3675;Memphis International Airport;35.04240036;-89.97669983;NA;US;Memphis
3678;McAllen Miller International Airport;26.176141;-98.237965;NA;US;McAllen
3679;Rogue Valley International Medford Airport;42.37419891;-122.8730011;NA;US;Medford
3681;Montgomery Regional (Dannelly Field) Airport;32.300598;-86.393997;NA;US;Montgomery
3682;Morgantown Municipal Airport Walter L. (Bill) Hart Field;39.643305;-79.917598;NA;US;Morgantown
3683;Manhattan Regional Airport;39.14099884;-96.67079926;NA;US;Manhattan
20506;Sacramento Mather Airport;38.553902;-121.297997;NA;US;Sacramento
3684;Manchester-Boston Regional Airport;42.932598;-71.435699;NA;US;Manchester
3685;Miami International Airport;25.79319954;-80.29060364;NA;US;Miami
3690;General Mitchell International Airport;42.94720078;-87.89659882;NA;US;Milwaukee
3691;Muskegon County Airport;43.169498;-86.238197;NA;US;Muskegon
3692;McKellar-Sipes Regional Airport;35.599899;-88.915604;NA;US;Jackson
3693;Melbourne Orlando International Airport;28.1028;-80.645302;NA;US;Melbourne
3695;Quad City International Airport;41.448502;-90.5075;NA;US;Moline
3696;Frank Wiley Field;46.4280014;-105.8860016;NA;US;Miles City
3697;Monroe Regional Airport;32.510899;-92.037697;NA;US;Monroe
3700;Mobile Regional Airport;30.6912;-88.242798;NA;US;Mobile
3702;Minot International Airport;48.25939941;-101.2799988;NA;US;Minot
3705;Monterey Peninsula Airport;36.5870018;-121.8430023;NA;US;Monterey
3706;Northwest Alabama Regional Airport;34.74530029;-87.61019897;NA;US;Muscle Shoals
3707;Dane County Regional Truax Field;43.1399;-89.337502;NA;US;Madison
3708;Missoula International Airport;46.91630173;-114.0910034;NA;US;Missoula
3709;Minneapolis–Saint Paul International Airport / Wold–Chamberlain Field;44.882;-93.221802;NA;US;Minneapolis
3710;Massena International Airport Richards Field;44.936157;-74.844304;NA;US;Massena
3711;Louis Armstrong New Orleans International Airport;29.99340057;-90.25800323;NA;US;New Orleans
3717;Myrtle Beach International Airport;33.67969894;-78.92829895;NA;US;Myrtle Beach
3961;Yuma International Airport / Marine Corps Air Station Yuma;32.656601;-114.606003;NA;US;Yuma
3744;Metropolitan Oakland International Airport;37.721298;-122.221001;NA;US;Oakland
3746;Ogden Hinckley Airport;41.19589996;-112.012001;NA;US;Ogden
3747;Will Rogers World Airport;35.393101;-97.6007;NA;US;Oklahoma City
3751;Eppley Airfield;41.3032;-95.894096;NA;US;Omaha
3752;Ontario International Airport;34.05599976;-117.6009979;NA;US;Ontario
3754;Chicago O'Hare International Airport;41.9786;-87.9048;NA;US;Chicago
3755;Norfolk International Airport;36.8946;-76.201202;NA;US;Norfolk
3756;Worcester Regional Airport;42.2673;-71.875702;NA;US;Worcester
3759;Southwest Oregon Regional Airport;43.417099;-124.2460022;NA;US;North Bend
3761;Owensboro Daviess County Airport;37.74010086;-87.16680145;NA;US;Owensboro
35242;Orang (Chongjin) Airport;41.428538;129.647555;AS;KP;Hoemun-ri
3763;Snohomish County (Paine Field) Airport;47.9063;-122.281998;NA;US;Everett
3764;Barkley Regional Airport;37.06079865;-88.77380371;NA;US;Paducah
20808;Plattsburgh International Airport;44.65090179;-73.4681015;NA;US;Plattsburgh
3766;Palm Beach International Airport;26.68320084;-80.09559631;NA;US;West Palm Beach
20815;Eastern Oregon Regional Airport at Pendleton;45.695099;-118.841003;NA;US;Pendleton
3768;Portland International Airport;45.58869934;-122.5979996;NA;US;Portland
20822;Charlotte County Airport;26.9202;-81.990501;NA;US;Punta Gorda
3770;Newport News Williamsburg International Airport;37.131901;-76.492996;NA;US;Newport News
3771;Philadelphia International Airport;39.87189865;-75.2410965;NA;US;Philadelphia
3772;Phoenix Sky Harbor International Airport;33.435302;-112.005905;NA;US;Phoenix
3773;General Wayne A. Downing Peoria International Airport;40.6642;-89.693298;NA;US;Peoria
3774;Hattiesburg Laurel Regional Airport;31.4671;-89.337097;NA;US;Moselle
3775;St Petersburg Clearwater International Airport;27.91020012;-82.68740082;NA;US;St Petersburg-Clearwater
3776;Pocatello Regional Airport;42.90980148;-112.5960007;NA;US;Pocatello
3777;Pierre Regional Airport;44.38270187;-100.2860031;NA;US;Pierre
3778;Pittsburgh International Airport;40.49150085;-80.23290253;NA;US;Pittsburgh
3779;Mid Ohio Valley Regional Airport;39.3451004;-81.43920135;NA;US;Parkersburg
3781;Pellston Regional Airport of Emmet County Airport;45.57089996;-84.79669952;NA;US;Pellston
20850;Northeast Philadelphia Airport;40.081902;-75.010597;NA;US;Philadelphia
3783;Pensacola International Airport;30.4734;-87.1866;NA;US;Pensacola
3787;Presque Isle International Airport;46.688999;-68.0448;NA;US;Presque Isle
3789;Prescott International Airport - Ernest A. Love Field;34.654499;-112.419998;NA;US;Prescott
20870;Tri Cities Airport;46.26470184;-119.1190033;NA;US;Pasco
3791;Portsmouth International at Pease Airport;43.07789993;-70.82330322;NA;US;Portsmouth
3792;Palm Springs International Airport;33.8297;-116.507004;NA;US;Palm Springs
3794;Pueblo Memorial Airport;38.289101;-104.497002;NA;US;Pueblo
20883;Pullman Moscow Regional Airport;46.7439;-117.110001;NA;US;Pullman/Moscow
3795;Theodore Francis Green State Airport;41.725038;-71.425668;NA;US;Providence
20890;Provo-Utah Lake International Airport;40.2192;-111.723;NA;US;Provo
3796;Portland International Jetport;43.646198;-70.309303;NA;US;Portland
3838;Rapid City Regional Airport;44.04529953;-103.0569992;NA;US;Rapid City
3841;Redding Municipal Airport;40.50899887;-122.2929993;NA;US;Redding
3842;Reading Regional Airport (Carl A Spaatz Field);40.378502;-75.965202;NA;US;Reading
3843;Roberts Field;44.2541008;-121.1500015;NA;US;Redmond
3844;Raleigh Durham International Airport;35.87760162;-78.78749847;NA;US;Raleigh/Durham
3845;Chicago Rockford International Airport;42.1954;-89.097198;NA;US;Chicago/Rockford
3846;Rhinelander Oneida County Airport;45.63119888;-89.46749878;NA;US;Rhinelander
3847;Richmond International Airport;37.50519943;-77.31970215;NA;US;Richmond
3850;Southwest Wyoming Regional Airport;41.5942;-109.065001;NA;US;Rock Springs
3853;Reno Tahoe International Airport;39.49909973;-119.7679977;NA;US;Reno
3854;Roanoke–Blacksburg Regional Airport;37.3255;-79.975403;NA;US;Roanoke
3855;Frederick Douglass Greater Rochester International Airport;43.1189;-77.672401;NA;US;Rochester
3856;Roswell Air Center Airport;33.301601;-104.530998;NA;US;Roswell
3857;Rochester International Airport;43.908298;-92.5;NA;US;Rochester
3858;Southwest Florida International Airport;26.53619957;-81.75520325;NA;US;Fort Myers
3859;Rutland - Southern Vermont Regional Airport;43.5294;-72.9496;NA;US;Rutland
3862;San Diego International Airport;32.73360062;-117.1900024;NA;US;San Diego
3863;San Antonio International Airport;29.533701;-98.469803;NA;US;San Antonio
3864;Savannah Hilton Head International Airport;32.12760162;-81.20210266;NA;US;Savannah
3865;Sawyer International Airport;46.3536;-87.395401;NA;US;Gwinn
3866;Santa Barbara Municipal Airport;34.42620087;-119.8399963;NA;US;Santa Barbara
3867;San Bernardino International Airport;34.095402;-117.235001;NA;US;San Bernardino
3868;South Bend Regional Airport;41.708698;-86.317299;NA;US;South Bend
3869;San Luis County Regional Airport;35.23680115;-120.6419983;NA;US;San Luis Obispo
3870;Salisbury Ocean City Wicomico Regional Airport;38.34049988;-75.51029968;NA;US;Salisbury
3873;Louisville Muhammad Ali International Airport;38.1744;-85.736;NA;US;Louisville
3875;Seattle–Tacoma International Airport;47.449162;-122.311134;NA;US;Seattle
3876;Orlando Sanford International Airport;28.77759933;-81.23750305;NA;US;Orlando
3878;San Francisco International Airport;37.61899948;-122.375;NA;US;San Francisco
3879;Springfield Branson National Airport;37.245701;-93.388603;NA;US;Springfield
21061;Northeast Florida Regional Airport;29.9592;-81.339798;NA;US;St Augustine
21065;St George Regional Airport;37.036389;-113.510306;NA;US;St George
21066;Shenandoah Valley Regional Airport;38.263802;-78.8964;NA;US;Weyers Cave
3881;Sheridan County Airport;44.76919937;-106.9800034;NA;US;Sheridan
3882;Shreveport Regional Airport;32.446602;-93.8256;NA;US;Shreveport
3883;Norman Y. Mineta San Jose International Airport;37.362452;-121.929188;NA;US;San Jose
3884;San Angelo Regional Mathis Field;31.35770035;-100.4960022;NA;US;San Angelo
3887;Salt Lake City International Airport;40.785749;-111.979746;NA;US;Salt Lake City
3890;Adirondack Regional Airport;44.38691;-74.204629;NA;US;Saranac Lake
3891;Salina Municipal Airport;38.79100037;-97.65219879;NA;US;Salina
3892;Sacramento International Airport;38.69540024;-121.5910034;NA;US;Sacramento
3893;Santa Maria Public Airport Captain G Allan Hancock Field;34.898899;-120.457001;NA;US;Santa Maria
3894;John Wayne Airport-Orange County Airport;33.675701;-117.867996;NA;US;Santa Ana
3897;Abraham Lincoln Capital Airport;39.844101;-89.677902;NA;US;Springfield
3898;Sheppard Air Force Base / Wichita Falls Municipal Airport;33.9888;-98.491898;NA;US;Wichita Falls
3899;Sarasota Bradenton International Airport;27.395399;-82.554398;NA;US;Sarasota/Bradenton
3903;Saint Cloud Regional Airport;45.5466;-94.059898;NA;US;Saint Cloud
3905;St Louis Lambert International Airport;38.748697;-90.370003;NA;US;St Louis
21114;Charles M. Schulz Sonoma County Airport;38.50899887;-122.8130035;NA;US;Santa Rosa
21118;Friedman Memorial Airport;43.50439835;-114.2959976;NA;US;Hailey
3909;Sioux Gateway Airport / Brigadier General Bud Day Field;42.397605;-96.382237;NA;US;Sioux City
3911;New York Stewart International Airport;41.504101;-74.104797;NA;US;Newburgh
3913;Syracuse Hancock International Airport;43.11119843;-76.10630035;NA;US;Syracuse
3915;Waynesville-St. Robert Regional Forney field;37.74160004;-92.14070129;NA;US;Fort Leonard Wood
3924;Tallahassee Regional Airport;30.3965;-84.350304;NA;US;Tallahassee
3925;Eugene F. Kranz Toledo Express Airport;41.5868;-83.8078;NA;US;Toledo
3926;Tampa International Airport;27.97550011;-82.53320313;NA;US;Tampa
3928;Tri-Cities Regional TN/VA Airport;36.475201;-82.407401;NA;US;Blountville
3929;Trenton Mercer Airport;40.27669907;-74.81349945;NA;US;Trenton
3930;Tulsa International Airport;36.19839859;-95.88809967;NA;US;Tulsa
3931;Tupelo Regional Airport;34.26810074;-88.76989746;NA;US;Tupelo
3932;Tucson International Airport / Morris Air National Guard Base;32.115004;-110.938053;NA;US;Tucson
3933;Cherry Capital Airport;44.74140167;-85.5821991;NA;US;Traverse City
3935;Joslin Field Magic Valley Regional Airport;42.4818;-114.487999;NA;US;Twin Falls
3936;Texarkana Regional Webb Field;33.45370102;-93.99099731;NA;US;Texarkana
3937;Tyler Pounds Regional Airport;32.35409927;-95.40239716;NA;US;Tyler
3938;McGhee Tyson Airport;35.811001;-83.994003;NA;US;Knoxville
3940;Quincy Regional Baldwin Field;39.94269943;-91.19460297;NA;US;Quincy
21300;University Park Airport;40.849374;-77.84852;NA;US;State College
3945;Victoria Regional Airport;28.8526001;-96.91850281;NA;US;Victoria
3946;Valdosta Regional Airport;30.78249931;-83.27670288;NA;US;Valdosta
3948;Destin-Fort Walton Beach Airport;30.4832;-86.525398;NA;US;Valparaiso
42550;Kiwayu Airport;-1.960559964;41.29750061;AF;KE;Kiwayu
21410;Northwest Arkansas Regional Airport;36.281898;-94.306801;NA;US;Fayetteville/Springdale/Rogers
3958;Yakima Air Terminal McAllister Field;46.56819916;-120.5439987;NA;US;Yakima
3972;Tirana International Airport Mother Teresa;41.41469955;19.72060013;EU;AL;Tirana
3974;Burgas Airport;42.56959915;27.51519966;EU;BG;Burgas
3976;Plovdiv International Airport;42.067799;24.8508;EU;BG;Plovdiv
3977;Sofia Airport;42.69669342;23.41143608;EU;BG;Sofia
3979;Varna Airport;43.232101;27.8251;EU;BG;Varna
30979;Ercan International Airport;35.15470123;33.49610138;AS;CY;Nicosia
3980;Larnaca International Airport;34.875099;33.624901;AS;CY;Larnaca
3981;Paphos International Airport;34.717999;32.485699;AS;CY;Paphos
3984;Dubrovnik Airport;42.56140137;18.26819992;EU;HR;Dubrovnik
3986;Osijek Airport;45.4627;18.8102;EU;HR;Osijek
3987;Pula Airport;44.89350128;13.9222002;EU;HR;Pula
3989;Rijeka Airport;45.21689987;14.5703001;EU;HR;Rijeka
3990;Brač Airport;43.285702;16.679701;EU;HR;Bol
3991;Split Airport;43.53889847;16.29800034;EU;HR;Split
3993;Zagreb Airport;45.74290085;16.06879997;EU;HR;Zagreb
3994;Zadar Airport;44.108299;15.3467;EU;HR;Zemunik (Zadar)
3997;Alicante-Elche Miguel Hernández Airport;38.2822;-0.558156;EU;ES;Alicante
3998;Almería Airport;36.843899;-2.3701;EU;ES;Almería
3999;Asturias Airport;43.563599;-6.03462;EU;ES;Ranón
4001;Bilbao Airport;43.301102;-2.91061;EU;ES;Bilbao
4003;Burgos Airport;42.357601;-3.62076;EU;ES;Burgos
4004;Josep Tarradellas Barcelona-El Prat Airport;41.2971;2.07846;EU;ES;Barcelona
4005;Badajoz Airport;38.8913;-6.82133;EU;ES;Badajoz
300859;Castellón-Costa Azahar Airport;40.213889;0.073333;EU;ES;Castellón de la Plana
4007;A Coruña Airport;43.302101;-8.37726;EU;ES;Culleredo
308328;Lleida-Alguaire Airport;41.728185;0.535023;EU;ES;Lleida
4010;Girona-Costa Brava Airport;41.901001;2.76055;EU;ES;Girona
4011;F.G.L. Airport Granada-Jaén Airport;37.188702;-3.77736;EU;ES;Granada
4013;Ibiza Airport;38.872898;1.37312;EU;ES;Ibiza (Eivissa)
4015;Jerez Airport;36.744598;-6.06011;EU;ES;Jerez de la Frontera
4018;León Airport;42.589001;-5.65556;EU;ES;León
4019;Adolfo Suárez Madrid–Barajas Airport;40.471926;-3.56264;EU;ES;Madrid
4020;Málaga-Costa del Sol Airport;36.6749;-4.49911;EU;ES;Málaga
4021;Menorca Airport;39.862598;4.21865;AF;ES;Mahón (Maó)
4035;Palma de Mallorca Airport;39.551701;2.73881;EU;ES;Palma de Mallorca
4025;Pamplona Airport;42.77;-1.64633;EU;ES;Pamplona
4031;Reus Airport;41.1474;1.16717;EU;ES;Reus
4033;Salamanca Airport;40.952099;-5.50199;EU;ES;Salamanca
4037;San Sebastián Airport;43.356499;-1.79061;EU;ES;Hondarribia
4038;Santiago-Rosalía de Castro Airport;42.896301;-8.41514;EU;ES;Santiago de Compostela
4042;Valencia Airport;39.4893;-0.481625;EU;ES;Valencia
4043;Valladolid Airport;41.7061;-4.85194;EU;ES;Valladolid
4045;Vitoria Airport;42.882801;-2.72447;EU;ES;Alava
4046;Vigo Airport;42.2318;-8.62677;EU;ES;Vigo
4047;Seve Ballesteros-Santander Airport;43.427101;-3.82001;EU;ES;Santander
4048;Zaragoza Airport;41.666199;-1.04155;EU;ES;Zaragoza
4049;Sevilla Airport;37.417999;-5.89311;EU;ES;Sevilla
4058;Agen-La Garenne Airport;44.17470169;0.590556026;EU;FR;Agen/La Garenne
4060;Bordeaux-Mérignac Airport;44.8283;-0.715556;EU;FR;Bordeaux/Mérignac
4061;Bergerac-Roumanière Airport;44.82529831;0.518611014;EU;FR;Bergerac/Roumanière
4064;La Rochelle-Île de Ré Airport;46.17919922;-1.195279956;EU;FR;La Rochelle/Île de Ré
4065;Poitiers-Biard Airport;46.58769989;0.306665987;EU;FR;Poitiers/Biard
4067;Limoges Airport;45.8628006;1.179440022;EU;FR;Limoges/Bellegarde
4070;Toulouse-Blagnac Airport;43.629101;1.36382;EU;FR;Toulouse/Blagnac
4071;Pau Pyrénées Airport;43.38000107;-0.41861099;EU;FR;Pau/Pyrénées (Uzein)
4073;Tarbes-Lourdes-Pyrénées Airport;43.17869949;-0.006439;EU;FR;Tarbes/Lourdes/Pyrénées
4077;Biarritz-Anglet-Bayonne Airport;43.4683333;-1.5311111;EU;FR;Biarritz/Anglet/Bayonne
4082;Castres-Mazamet Airport;43.55630112;2.28918004;EU;FR;Castres/Mazamet
4086;Rodez-Marcillac Airport;44.40790176;2.482670069;EU;FR;Rodez/Marcillac
4101;Île d'Yeu Airport;46.71860123;-2.391109943;EU;FR;Île d'Yeu
4107;Dole-Tavaux Airport;47.042686;5.435063;EU;FR;Dole/Tavaux
4111;Le Puy-Loudes Airfield;45.0807;3.76289;EU;FR;Le Puy/Loudes
4120;Metz-Nancy-Lorraine Airport;48.98210144;6.251319885;EU;FR;Metz / Nancy
4121;Angers-Loire Airport;47.560299;-0.312222;EU;FR;TFFR
4123;Bastia-Poretta Airport;42.55270004;9.483730316;EU;FR;Bastia/Poretta
4124;Calvi-Sainte-Catherine Airport;42.5244444;8.7930556;EU;FR;Calvi/Sainte-Catherine
4125;Figari Sud-Corse Airport;41.500599;9.09778;EU;FR;Figari Sud-Corse
4126;Ajaccio-Napoléon Bonaparte Airport;41.92359924;8.802920341;EU;FR;Ajaccio/Napoléon Bonaparte
4131;Chambéry-Savoie Airport;45.63809967;5.88022995;EU;FR;Chambéry/Aix-les-Bains
4132;Clermont-Ferrand Auvergne Airport;45.7867012;3.169169903;EU;FR;Clermont-Ferrand/Auvergne
4137;Lyon Saint-Exupéry Airport;45.725556;5.081111;EU;FR;Lyon
4141;Annecy-Haute-Savoie-Mont Blanc Airport;45.9308333;6.1063889;EU;FR;Annecy/Meythet
4142;Grenoble-Isère Airport;45.3629;5.32937;EU;FR;Saint-Étienne-de-Saint-Geoirs
4146;Aurillac Airport;44.89139938;2.421940088;EU;FR;Aurillac
4151;Cannes-Mandelieu Airport;43.542;6.95348;EU;FR;Cannes
4152;Saint-Étienne-Bouthéon Airport;45.54059982;4.296390057;EU;FR;Saint-Étienne/Bouthéon
4154;Carcassonne Airport;43.2159996;2.306319952;EU;FR;Carcassonne/Salvaza
4155;Marseille Provence Airport;43.43927192;5.221424103;EU;FR;Marseille
4156;Nice-Côte d'Azur Airport;43.65840149;7.215869904;EU;FR;Nice
4158;Perpignan-Rivesaltes (Llabanère) Airport;42.74039841;2.87067008;EU;FR;Perpignan/Rivesaltes
4161;Montpellier-Méditerranée Airport;43.57619858;3.963010073;EU;FR;Montpellier/Méditerranée
4162;Béziers-Vias Airport;43.32350159;3.353899956;EU;FR;Béziers/Vias
4163;Avignon-Caumont Airport;43.90729904;4.901830196;EU;FR;Avignon/Caumont
4169;Paris Beauvais Tillé Airport;49.454399;2.11278;EU;FR;Beauvais
4173;Le Havre Octeville Airport;49.53390121;0.088055998;EU;FR;Le Havre/Octeville
4176;Châlons-Vatry Airport;48.773333;4.206111;EU;FR;Vatry
4177;Rouen Airport;49.38420105;1.174800038;EU;FR;Rouen/Vallée de Seine
4179;Tours-Val-de-Loire Airport;47.43220139;0.727605999;EU;FR;Tours/Val de Loire (Loire Valley)
4185;Charles de Gaulle International Airport;49.012798;2.55;EU;FR;Paris
4189;Paris-Orly Airport;48.7233333;2.3794444;EU;FR;Paris
4202;Lille-Lesquin Airport;50.563332;3.086886;EU;FR;Lille/Lesquin
4206;Brest Bretagne Airport;48.44789886;-4.418540001;EU;FR;Brest/Guipavas
4207;Cherbourg-Maupertus Airport;49.65010071;-1.470280051;EU;FR;Cherbourg/Maupertus
4208;Dinard-Pleurtuit-Saint-Malo Airport;48.58769989;-2.079960108;EU;FR;Dinard/Pleurtuit/Saint-Malo
4211;Deauville-Saint-Gatien Airport;49.365299;0.154306;EU;FR;Deauville
4212;Lorient South Brittany (Bretagne Sud) Airport;47.76060104;-3.440000057;EU;FR;Lorient/Lann/Bihoué
4215;Caen-Carpiquet Airport;49.173302;-0.45;EU;FR;Caen/Carpiquet
4218;Rennes-Saint-Jacques Airport;48.0695;-1.73479;EU;FR;Rennes/Saint-Jacques
4220;Quimper-Cornouaille Airport;47.97499847;-4.167789936;EU;FR;Quimper/Pluguffan
4221;Nantes Atlantique Airport;47.15319824;-1.610730052;EU;FR;Nantes
4226;EuroAirport Basel-Mulhouse-Freiburg Airport;47.59;7.529167;EU;FR;Bâle/Mulhouse
4228;Dijon-Bourgogne Airport;47.268902;5.09;EU;FR;Dijon/Longvic
29001;Brive-Souillac;45.039722;1.485556;EU;FR;Brive la Gaillarde
4238;Strasbourg Airport;48.53829956;7.628230095;EU;FR;Strasbourg
4241;Toulon-Hyères Airport;43.09730148;6.146029949;EU;FR;Toulon/Hyères/Le Palyvestre
4242;Nîmes-Arles-Camargue Airport;43.75740051;4.416349888;EU;FR;Nîmes/Garons
4244;Miquelon Airport;47.095501;-56.380299;NA;PM;Miquelon
4245;St Pierre Airport;46.76290131;-56.17309952;NA;PM;Saint-Pierre
4250;Alexandroupoli Democritus Airport;40.8559;25.956301;EU;GR;Alexandroupolis
4251;Athens Eleftherios Venizelos International Airport;37.936401;23.9445;EU;GR;Athens
4253;Nea Anchialos National Airport;39.219601;22.7943;EU;GR;Nea Anchialos
4255;Chios Island National Airport;38.34320068;26.1406002;EU;GR;Chios Island
4257;Ioannina Airport;39.69639969;20.82250023;EU;GR;Ioannina
4258;Heraklion International Nikos Kazantzakis Airport;35.33969879;25.18029976;EU;GR;Heraklion
4261;Kefallinia Airport;38.12009811;20.50049973;EU;GR;Kefallinia Island
4262;Kalamata Airport;37.06829834;22.02549934;EU;GR;Kalamata
4264;Kos Airport;36.79330063;27.0916996;EU;GR;Kos Island
4265;Karpathos Airport;35.42139816;27.14599991;EU;GR;Karpathos Island
4266;Ioannis Kapodistrias International Airport;39.60189819;19.9116993;EU;GR;Kerkyra Island
4268;Kavala Alexander the Great International Airport;40.9133;24.6192;EU;GR;Kavala
4269;Kozani State Airport Filippos;40.286098;21.840799;EU;GR;Kozani
4274;Mikonos Airport;37.43510056;25.34810066;EU;GR;Mykonos Island
4275;Mytilene International Airport;39.05670166;26.59830093;EU;GR;Mytilene
4277;Aktion National Airport;38.92549896;20.76530075;EU;GR;Preveza/Lefkada
4279;Diagoras Airport;36.40539932;28.08620071;EU;GR;Rodes Island
4280;Patras Araxos Agamemnon Airport;38.1511;21.4256;EU;GR;Patras
4281;Chania International Airport;35.53170013;24.14970016;EU;GR;Souda
4282;Skiathos Island National Airport;39.17710114;23.50370026;EU;GR;Skiathos
4283;Samos Airport;37.68999863;26.9116993;EU;GR;Samos Island
4286;Santorini Airport;36.39920044;25.47929955;EU;GR;Santorini Island
4287;Sitia Airport;35.21609879;26.10129929;EU;GR;Crete Island
4293;Thessaloniki Macedonia International Airport;40.5196991;22.97089958;EU;GR;Thessaloniki
4295;"Zakynthos International Airport ""Dionysios Solomos""";37.7509;20.8843;EU;GR;Zakynthos Island
4296;Budapest Liszt Ferenc International Airport;47.42976;19.261093;EU;HU;Budapest
4297;Debrecen International Airport;47.488899;21.615299;EU;HU;Debrecen
4303;Győr-Pér International Airport;47.624401;17.813601;EU;HU;Győr
4305;Hévíz–Balaton Airport;46.686391;17.159084;EU;HU;Sármellék
4309;Crotone Airport;38.9972;17.0802;EU;IT;Crotone
4310;Bari Karol Wojtyła Airport;41.138901;16.760599;EU;IT;Bari
4311;"Foggia ""Gino Lisa"" Airport";41.432899;15.535;EU;IT;Foggia
4314;Abruzzo Airport;42.431702;14.1811;EU;IT;Pescara
4315;Brindisi Airport;40.6576;17.947001;EU;IT;Brindisi
4317;Lamezia Terme Airport;38.905399;16.2423;EU;IT;Lamezia Terme (CZ)
298716;Comiso Airport;36.994601;14.607182;EU;IT;Comiso
4318;Catania-Fontanarossa Airport;37.466801;15.0664;EU;IT;Catania
4319;Lampedusa Airport;35.497898;12.6181;EU;IT;Lampedusa
4320;Pantelleria Airport;36.816502;11.9689;EU;IT;Pantelleria (TP)
4321;Falcone–Borsellino Airport;38.175999;13.091;EU;IT;Palermo
4323;Reggio Calabria Airport;38.071201;15.6516;EU;IT;Reggio Calabria
4324;Vincenzo Florio Airport Trapani-Birgi;37.9114;12.488;EU;IT;Trapani (TP)
4330;Alghero-Fertilia Airport;40.632099;8.29077;EU;IT;Alghero
4332;Cagliari Elmas Airport;39.251499;9.05428;EU;IT;Cagliari
4333;Olbia Costa Smeralda Airport;40.898701;9.51763;EU;IT;Olbia (SS)
4340;Malpensa International Airport;45.6306;8.72811;EU;IT;Milan
4341;Milan Bergamo Airport;45.673901;9.70417;EU;IT;Milan
4342;Turin Airport;45.200802;7.64963;EU;IT;Torino
4344;Genoa Cristoforo Colombo Airport;44.4133;8.8375;EU;IT;Genova
4345;Milano Linate Airport;45.445099;9.27674;EU;IT;Milan
4347;Parma Airport;44.824501;10.2964;EU;IT;Parma
4350;Cuneo International Airport;44.547001;7.62322;EU;IT;Cuneo
4352;Bolzano Airport;46.460201;11.3264;EU;IT;Bolzano
4354;Bologna Guglielmo Marconi Airport;44.5354;11.2887;EU;IT;Bologna
4355;Treviso-Sant'Angelo Airport;45.648399;12.1944;EU;IT;Treviso
4357;Forlì Airport;44.194801;12.0701;EU;IT;Forlì (FC)
4360;Brescia Airport;45.428902;10.3306;EU;IT;Montichiari (BS)
4361;Trieste–Friuli Venezia Giulia Airport;45.827499;13.4722;EU;IT;Trieste
4362;Federico Fellini International Airport;44.020302;12.6117;EU;IT;Rimini
4366;Verona-Villafranca Valerio Catullo Airport;45.394955;10.887303;EU;IT;Villafranca di Verona
4367;Marche Airport;43.616299;13.3623;EU;IT;Ancona
4368;Venice Marco Polo Airport;45.505299;12.3519;EU;IT;Venice
4370;Ciampino–G. B. Pastine International Airport;41.7994;12.5949;EU;IT;Rome
4372;Rome–Fiumicino Leonardo da Vinci International Airport;41.804532;12.251998;EU;IT;Rome
4375;Marina Di Campo Airport;42.7603;10.2394;EU;IT;Marina  Di Campo
4378;Naples International Airport;40.886002;14.2908;EU;IT;Nápoli
4379;Pisa International Airport;43.683899;10.3927;EU;IT;Pisa
4380;Peretola Airport;43.810001;11.2051;EU;IT;Firenze
4384;Perugia San Francesco d'Assisi – Umbria International Airport;43.095901;12.5132;EU;IT;Perugia
4386;Ljubljana Jože Pučnik Airport;46.223701;14.4576;EU;SI;Ljubljana
4399;Karlovy Vary International Airport;50.20299911;12.91499996;EU;CZ;Karlovy Vary
4402;Ostrava Leos Janáček Airport;49.69630051;18.11109924;EU;CZ;Ostrava
4405;Pardubice Airport;50.01340103;15.73859978;EU;CZ;Pardubice
4408;Václav Havel Airport Prague;50.1008;14.26;EU;CZ;Prague
4409;Brno-Tuřany Airport;49.15129852;16.69440079;EU;CZ;Brno
4411;Ben Gurion International Airport;32.01139832;34.88669968;AS;IL;Tel Aviv
330388;Ramon International Airport;29.727009;35.014116;AS;IL;Eilat
4417;Haifa International Airport;32.80939865;35.04309845;AS;IL;Haifa
4427;Malta International Airport;35.857498;14.4775;EU;MT;Valletta
4430;Graz Airport;46.9911;15.4396;EU;AT;Graz (Feldkirchen bei Graz)
4431;Innsbruck Airport;47.260201;11.344;EU;AT;Innsbruck
4435;Klagenfurt Airport;46.642502;14.3377;EU;AT;Klagenfurt am Wörthersee
4432;Linz-Hörsching Airport / Vogler Air Base;48.2332;14.1875;EU;AT;Linz
